location,lat,lon
"North Fort Myer Drive, Rosslyn, Arlington, Arlington County, Virginia, 22209, United States",38.8967386,-77.0724024
"Juvisy-sur-Orge, Palaiseau, Essonne, Île-de-France, France métropolitaine, 91260, France",48.6904063,2.373809
"Atlantic City, Atlantic County, New Jersey, 08401, United States",39.3642852,-74.4229351
"Victoria, Capital Regional District, British Columbia, Canada",48.4283182,-123.3649533
"Tienen, Leuven, Vlaams-Brabant, Vlaanderen, 3300, België / Belgique / Belgien",50.8074825,4.9371775
"Billericay, Basildon, Essex, England, United Kingdom",51.6284395,0.4218142
"Potters Bar, Hertsmere, Hertfordshire, England, EN6 1QG, United Kingdom",51.6958889,-0.1848935
"Mainz, Rheinland-Pfalz, Deutschland",50.0012314,8.2762513
"Brainy Cut Off, Hazelvale, Shire Of Denmark, Western Australia, Australia",-34.9595334,116.8280129
"Elizabeth, Union County, New Jersey, United States",40.6639916,-74.2107006
"Cleveland, Cuyahoga County, Ohio, United States",41.4996574,-81.6936772
"Dix Run Road, Union Township, Centre County, Pennsylvania, 16844, United States",40.907199,-77.938042
"Chicago, Cook County, Illinois, United States",41.8755616,-87.6244212
"Verona, Veneto, 37121-37142, Italia",45.4384958,10.9924122
"Newcastle upon Tyne, North of Tyne, England, United Kingdom",54.9738474,-1.6131572
"Washington Township, Morris County, New Jersey, United States, Long Valley",40.78168135,-74.75923279813415
"New Paris, Elkhart County, Indiana, United States",41.504546500000004,-85.82410851437608
"Newark, Essex County, New Jersey, United States",40.735657,-74.1723667
"Newark, Essex County, New Jersey, United States",40.735657,-74.1723667
"Heller Field, Homerlea Avenue, Hopatcong, Sussex County, New Jersey, 07843, United States",40.9354609,-74.6611513311839
"Oskaloosa, Mahaska County, Iowa, United States",41.2951037,-92.6448451
"Cleveland, Cuyahoga County, Ohio, United States",41.4996574,-81.6936772
"Cartagena de Indias, Dique, Bolívar, RAP Caribe, Colombia",10.4266746,-75.5443419
"Bedford, England, MK40 1SU, United Kingdom",52.1363806,-0.4675041
"College Park, Prince George's County, Maryland, United States",38.980666,-76.9369189
"Morristown, Morris County, New Jersey, 07960, United States",40.7970382,-74.4809868
"Pemberville, Wood County, Ohio, United States",41.4108855,-83.46104
"València, Comarca de València, València / Valencia, Comunitat Valenciana, España",39.4697065,-0.3763353
"Batavia, Batavia Township, Kane County, Illinois, 60510, United States",41.8500284,-88.3125738
"Tie Siding, Albany County, Wyoming, 82084, United States",41.0812698,-105.5091717
"Greater London, England, United Kingdom, London",51.4893335,-0.14405508452768728
"Barcelona, Barcelonès, Barcelona, Catalunya, 08001, España",41.3828939,2.1774322
"La Crosse, La Crosse County, Wisconsin, United States",43.8122836,-91.2514355
"Elko County, Nevada, United States",41.1958128,-115.3272864
"Point Cook, Melbourne, City of Wyndham, Victoria, 3030, Australia",-37.9064862,144.7533059
"Mitchel Field Way, Avalon Garden City, Uniondale, Town of Hempstead, Nassau County, New York, 11549, United States",40.734982,-73.5944933
"Cleveland, Cuyahoga County, Ohio, United States",41.4996574,-81.6936772
"Rock Springs, Sweetwater County, Wyoming, 82901, United States",41.5860557,-109.2194544
"Toulouse, Haute-Garonne, Occitanie, France métropolitaine, France",43.6044622,1.4442469
"North Lincolnshire, England, United Kingdom, Humber",53.7124015,-0.3652257
"Paris, Île-de-France, France métropolitaine, France",48.8534951,2.3483915
"Paris, Île-de-France, France métropolitaine, France",48.8534951,2.3483915
شمال المحيط الأطلسي,40.0,-40.0
"Grandvilliers, Beauvais, Oise, Hauts-de-France, France métropolitaine, 60210, France",49.6647765,1.9428278
"Harbour Mini Market And Off License, Lower Sandgate Road, Foord, Folkestone, Folkestone and Hythe, Kent, England, CT20 1QJ, United Kingdom",51.0791366,1.1841744
"Fuhlsbüttel, Hamburg-Nord, Hamburg, Deutschland",53.6323399,10.0233695
"Cádiz, Bahía de Cádiz, Cádiz, Andalucía, España",36.5297438,-6.2928976
"Indianapolis, Marion County, Indiana, United States",39.7683331,-86.1583502
"Venezia, Veneto, 30121-30176, Italia",45.4371908,12.3345898
"Larache العرائش, Pachalik de Larache باشوية العرائش, Province de Larache إقليم العرائش, Tanger-Tétouan-Al Hoceïma ⵟⴰⵏⵊ-ⵟⵉⵜⴰⵡⵉⵏ-ⵍⵃⵓⵙⵉⵎⴰ طنجة تطوان الحسيمة, Maroc ⵍⵎⵖⵔⵉⴱ المغرب",35.1952327,-6.152913
"Fès ⴼⴰⵙ فاس, Pachalik du Fes باشوية فاس, Préfecture de Fès عمالة فاس, Fès-Meknès ⴼⴰⵙ-ⵎⴽⵏⴰⵙ فاس-مكناس, Maroc ⵍⵎⵖⵔⵉⴱ المغرب",34.0346534,-5.0161926
"Ajaccio, Corse-du-Sud, Corse, France métropolitaine, France",41.9263991,8.7376029
"Barcelona, Barcelonès, Barcelona, Catalunya, 08001, España",41.3828939,2.1774322
"Cheyenne, Laramie County, Wyoming, United States",41.139981,-104.820246
"Meadville, Crawford County, Pennsylvania, 16335, United States",41.641445,-80.151449
"București, România",44.4361414,26.1027202
"Colton, Washington Township, Henry County, Ohio, 43510, United States",41.4647742,-83.9524442
"Russia, Shelby County, Ohio, United States",40.2338211,-84.4096729
"Castalia, Margaretta Township, Erie County, Ohio, United States",41.4000523,-82.8085204
"Egbert, Laramie County, Wyoming, United States",41.1710716,-104.2552567
"Grampian, Clearfield County, Pennsylvania, United States",40.9658932,-78.6130822
"Barranquilla, Atlántico, RAP Caribe, Colombia",11.0101922,-74.8231794084391
United States,39.7837304,-100.445882
"Cabrerolles, Béziers, Hérault, Occitanie, France métropolitaine, 34480, France",43.5445,3.12514
"Goshen, Elkhart County, Indiana, United States",41.5850394,-85.8344491
"Purley, London Borough of Croydon, London, Greater London, England, CR8 2FQ, United Kingdom",51.3388112,-0.1158589
"Alacant / Alicante, l'Alacantí, Alacant / Alicante, Comunitat Valenciana, España",38.3436365,-0.4881708
"Landrecies, Avesnes-sur-Helpe, Nord, Hauts-de-France, France métropolitaine, 59550, France",50.1250142,3.6913023
"Alacant / Alicante, l'Alacantí, Alacant / Alicante, Comunitat Valenciana, España",38.3436365,-0.4881708
"Roses, Alt Empordà, Girona, Catalunya, 17480, España",42.2632018,3.1755328
"Budapest, Közép-Magyarország, Magyarország",47.4978918,19.0401609
"Caldwell, Noble County, Ohio, United States",39.7478508,-81.5165127
"Toul, Meurthe-et-Moselle, Grand Est, France métropolitaine, 54200, France",48.6762624,5.8941759
"Nittany Drive, Summitville, Columbiana County, Ohio, 43962, United States",40.6799498,-80.8880137
"نواذيبو, ولاية داخلة نواذيبو, موريتانيا",20.9127045,-17.0503094
"Off Course, 22, Rue Rosamel, La Voute de Boulogne, Étaples, Montreuil-sur-Mer, Pas-de-Calais, Hauts-de-France, France métropolitaine, 62630, France",50.5147177,1.6374135
"Montpelier, Superior Township, Williams County, Ohio, United States",41.5844951,-84.6055076
"Staaken, Spandau, Berlin, 13591, Deutschland",52.5322705,13.1433666
English Channel / La Manche,50.4924668,1.054682
"Wolvertem, Meise, Halle-Vilvoorde, Vlaams-Brabant, Vlaanderen, 1861, België / Belgique / Belgien",50.9510266,4.3085198
"Juist, Landkreis Aurich, Niedersachsen, 26571, Deutschland",53.6784483,6.9956079
"Chilham, Shottenden, Ashford, Kent, England, United Kingdom, Little Hurst Wood",51.24725825,0.9306338593499359
"City of New York, New York, United States",40.7127281,-74.0060152
"Büren, Kreis Paderborn, Nordrhein-Westfalen, 33142, Deutschland",51.5497446,8.573474968213432
English Channel / La Manche,50.4924668,1.054682
"Maroc ⵍⵎⵖⵔⵉⴱ المغرب, Cap Boujdour رأس بوجدور",26.1233266,-14.5005584
"Medford, Jackson County, Oregon, United States",42.3264181,-122.8718605
"Estaires, Dunkerque, Nord, Hauts-de-France, France métropolitaine, 59940, France",50.6440257,2.7226506
"Rabat ⵔⴱⴰⵟ الرباط, باشوية الرباط, عمالة الرباط, Rabat-Salé-Kénitra ⵔⴱⴰⵟ-ⵙⵍⴰ-ⵇⵏⵉⵟⵔⴰ الرباط-سلا-القنيطرة, Maroc ⵍⵎⵖⵔⵉⴱ المغرب",34.02236,-6.8340222
"Tambo, Blackall Tambo Regional, Queensland, Australia",-24.9071275,146.33124025447535
"Adams County, Idaho, United States, King Hill",44.5204431,-116.3345874
"Floh, Floh-Seligenthal, Landkreis Schmalkalden-Meiningen, Thüringen, 98593, Deutschland",50.770890449999996,10.496178825357095
"Goshen, Elkhart County, Indiana, United States",41.5850394,-85.8344491
"Alger ⴷⵣⴰⵢⴻⵔ الجزائر, Alger Centre ⴷⵣⴰⵢⴻⵔ ⵜⴰⵍⴻⵎⵎⴰⵙⵜ الجزائر الوسطى, Daïra Sidi M'Hamed, Alger, 16007, Algérie ⵍⵣⵣⴰⵢⴻⵔ الجزائر",36.7753606,3.0601882
"Amöneburg, Landkreis Marburg-Biedenkopf, Hessen, Deutschland",50.79946485,8.941291794880504
"Sevenoaks, Kent, England, United Kingdom",51.27452185,0.1961165562194977
"Willington, Capitol Planning Region, Connecticut, 06279, United States",41.874428,-72.2598935
"Hadley Way, Morris Township, Morris County, New Jersey, 07960, United States",40.775517,-74.459968
"Atlantic Ocean, Cameron County, Texas, 78597, United States",26.0745309,-97.160961
"Schleiz, Saale-Orla-Kreis, Thüringen, Deutschland",50.5590505,11.8040013
"New Brunswick, Middlesex County, New Jersey, United States",40.4862174,-74.4518173
"Strasbourg, Bas-Rhin, Grand Est, France métropolitaine, France",48.584614,7.7507127
"Corunna, DeKalb County, Indiana, United States",41.4372721,-85.1471934
"Almería, Andalucía, España",36.8414197,-2.4628135
"Solís, Maldonado, 20302, Uruguay",-34.7923733,-55.3837161
"L'Hospitalet, Mazères, Pamiers, Ariège, Occitanie, France métropolitaine, 09270, France",43.2297425,1.7138034
"Tarragona, Tarragonès, Tarragona, Catalunya, 43001, España",41.1172364,1.2546057
"Almería, Andalucía, España",36.8414197,-2.4628135
"Marquette, Hamilton County, Nebraska, United States",41.0070132,-98.0114268
"Wyoming, Elm Walk, Ward 2, Washington, District of Columbia, 20227, United States",38.889820150000006,-77.04024448558823
"Minuesa, San Martín de Montalbán, Toledo, Castilla-La Mancha, 45165, España",39.6903253,-4.4273603
"Dearborn Court, Presidents, Edina, Hennepin County, Minnesota, 55343, United States",44.9189015,-93.3906083
"Radevormwald, Oberbergischer Kreis, Nordrhein-Westfalen, 42477, Deutschland",51.2029228,7.3571392
"Frankfurt am Main, Hessen, Deutschland",50.1106444,8.6820917
"Lebo, Coffey County, Kansas, United States",38.4166818,-95.8530441
"Purley, London Borough of Croydon, London, Greater London, England, CR8 2FQ, United Kingdom",51.3388112,-0.1158589
"Charlois, Rotterdam, Zuid-Holland, Nederland, Waalhaven",51.8921899,4.4406806
"Toul, Meurthe-et-Moselle, Grand Est, France métropolitaine, 54200, France",48.6762624,5.8941759
"Adelaide Hills Council, South Australia, Australia",-34.90135105,138.82932020091445
"Pocatello, Bannock County, Idaho, United States",42.8620287,-112.450627
"Girona, Gironès, Girona, Catalunya, España",41.9793006,2.8199439
"Polk, Venango County, Pennsylvania, United States",41.3670014,-79.9292233
"Valence, Drôme, Auvergne-Rhône-Alpes, France métropolitaine, 26000, France",44.9332277,4.8920811
"Edgerton, St. Joseph Township, Williams County, Ohio, United States",41.4487184,-84.7480385
"Edgerton, St. Joseph Township, Williams County, Ohio, United States",41.4487184,-84.7480385
"Bristol Township, Trumbull County, Ohio, 44402, United States",41.3874649,-80.8692679
"Spur, Dickens County, Texas, United States",33.4764767,-100.855685
"Near Offices, Travessa Doutor Edésio da Silveira, Santa Rosa, Região Praias da Baía, Niterói, Região Geográfica Imediata do Rio de Janeiro, Região Metropolitana do Rio de Janeiro, Região Geográfica Intermediária do Rio de Janeiro, Rio de Janeiro, Região Sudeste, 24240-225, Brasil",-22.9026657,-43.09950120100339
"Spokane Valley, Spokane County, Washington, United States",47.6571104,-117.2613936
"Letzlingen, Gardelegen, Altmarkkreis Salzwedel, Sachsen-Anhalt, Deutschland",52.4480374,11.4852603
"Huron County, Ohio, United States",41.1305303,-82.591828
"Chattanooga, Hamilton County, East Tennessee, Tennessee, United States",35.0457219,-85.3094883
"Reims, Marne, Grand Est, France métropolitaine, 51100, France",49.2577886,4.031926
"Stafford Springs, Stafford, Capitol Planning Region, Connecticut, 06075, United States",41.9538665,-72.3040976
"Cove, Union County, Oregon, 97824, United States",45.2965257,-117.807987
"off road, Ait Hadi ⴰⵢⵜ ⵀⴰⴷⵉ ايت هادي, Ait Hadi ايت هادي, Caïdat de Chichaoua قيادة شيشاوة, Cercle de Chichaoua دائرة شيشاوة, Province de Chichaoua ⵜⴰⵙⴳⴰ ⵏ ⵛⵉⵛⴰⵡⴰ إقليم شيشاوة, Marrakech-Safi ⵎⵕⵕⴰⴽⵛ-ⴰⵙⴼⵉ مراكش-أسفي, 41102, Maroc ⵍⵎⵖⵔⵉⴱ المغرب",31.3947604,-8.7741484
"Morgantown, Monongalia County, West Virginia, United States",39.6296809,-79.9559437
"Newark, Essex County, New Jersey, United States",40.735657,-74.1723667
"San Diego, San Diego County, California, United States",32.7174202,-117.1627728
"Tampico, Tamaulipas, 89080, México",22.2157619,-97.8577713
"Tököl, Szigetszentmiklósi járás, Pest vármegye, Közép-Magyarország, Magyarország",47.3226787,18.9632427
"Alger ⴷⵣⴰⵢⴻⵔ الجزائر, Alger Centre ⴷⵣⴰⵢⴻⵔ ⵜⴰⵍⴻⵎⵎⴰⵙⵜ الجزائر الوسطى, Daïra Sidi M'Hamed, Alger, 16007, Algérie ⵍⵣⵣⴰⵢⴻⵔ الجزائر",36.7753606,3.0601882
"Santiago de Cuba, Cuba",20.0214637,-75.8294928
"Barcelona, Barcelonès, Barcelona, Catalunya, 08001, España",41.3828939,2.1774322
"Saint Paul, Ramsey County, Minnesota, United States",44.9497487,-93.0931028
"Columbus, Franklin County, Ohio, United States",39.9622601,-83.0007065
"Clovis, Curry County, New Mexico, 88101, United States",34.405472,-103.2050709
"Сочи, городской округ Сочи, Краснодарский край, Южный федеральный округ, Россия",43.5854823,39.723109
"Landkreis Helmstedt, Niedersachsen, Deutschland, Elm",52.1615728,10.894836437577046
"Needles, San Bernardino County, California, 92363, United States",34.8383236,-114.603872
"بندر جاسک, دهستان جاسک, بخش مرکزی شهرستان جاسک, شهرستان جاسک, استان هرمزگان, ایران",25.6436156,57.7745644
شمال المحيط الأطلسي,40.0,-40.0
"St. Catharines, Niagara Region, Golden Horseshoe, Ontario, Canada",43.1579812,-79.2441003
"Lamentation Drive, Berlin, Capitol Planning Region, Connecticut, 06023, United States",41.5973917,-72.7402852
"Jacumba, Jacumba Hot Springs, San Diego County, California, United States",32.61858505,-116.18746639559517
"Mount Vernon, Knox County, Ohio, 43050, United States",40.3933956,-82.4857181
"Cerro del Carbón, Terrenos del Lote 11 ""Cerro del Carbón"", Papantla, Veracruz, México",20.40446215,-97.28924571585102
"Saleccia Off Road, Route de Calvi, Santo-Pietro-di-Tenda, Calvi, Haute-Corse, Corse, France métropolitaine, 20246, France",42.6617712,9.2369442
"Vancouver, Clark County, Washington, United States",45.6306954,-122.6744557
"Chagrin Falls, Cuyahoga County, Ohio, United States",41.436589,-81.3855058
"Bench near Havelchaussee, Lieper Bucht, Grunewald, Charlottenburg-Wilmersdorf, Berlin, 14193, Deutschland",52.4713975,13.1961032
"Amarillo, Potter County, Texas, United States",35.2072185,-101.833824
"Saks Off 5th, North La Cienega Boulevard, Beverly Grove, Los Angeles, Los Angeles County, California, 90048, United States",34.0743044,-118.376178
"Antananarivo, Analamanga, Province d’Antananarivo, 101, Madagasikara / Madagascar",-18.9100122,47.5255809
"Oceanside, San Diego County, California, United States",33.1958696,-117.3794834
"Kansas City, Jackson County, Missouri, United States",39.100105,-94.5781416
"Hartford, Capitol Planning Region, Connecticut, United States",41.764582,-72.6908547
"Marden, Wiltshire, England, United Kingdom",51.30251775,-1.8792256376508032
"Jersey City, Hudson County, New Jersey, United States",40.7215682,-74.047455
"Buenos Aires, Comuna 6, Ciudad Autónoma de Buenos Aires, Argentina",-34.6075682,-58.4370894
"Boston, Suffolk County, Massachusetts, United States",42.3554334,-71.060511
"Region Hovedstaden, Danmark, Bornholm",55.143122399999996,14.922629658767558
"South Arkansas Pass Street, Ben Bolt, Jim Wells County, Texas, 78342, United States",27.6455368,-98.0841975
"Croydon, Greater London, England, CR0 1SZ, United Kingdom",51.3713049,-0.101957
"Edmonton, Division No. 11, Alberta, Canada",53.5462055,-113.491241
"Dresden, Sachsen, Deutschland",51.0493286,13.7381437
"Perth, City of Perth, Western Australia, 6000, Australia",-31.9558933,115.8605855
"Prince Rupert, North Coast Regional District, British Columbia, Canada",54.3126572,-130.32549
"Brookston, White County, Indiana, United States",40.6028144,-86.8672339
"上海市, 中国",31.2312707,121.4700152
"Melle, Gent, Oost-Vlaanderen, Vlaanderen, 9090, België / Belgique / Belgien",51.00303,3.7988833
"Lewis County, Washington, United States, Bluff Mountain",46.4553899,-121.898979
"Western Bay of Plenty District, Bay of Plenty, New Zealand / Aotearoa, Wairoa River",-37.7398071,176.0826134
"Bagot, Municipality of North Norfolk, Division No. 8, Manitoba, Canada",49.968373,-98.6290814
"Off D Main Cheers Bar, Mooneram Street, Saint James, Port of Spain, 190130, Trinidad and Tobago",10.6735993,-61.5327094
"New South Wales, Australia",-31.8759835,147.2869493
"Bazaar, Chase County, Kansas, United States",38.2719604,-96.5352854
"Burbank, Los Angeles County, California, United States",34.1812089,-118.307201
"Bellefonte, Centre County, Pennsylvania, 16823, United States",40.9134862,-77.7737471
"Walbridge, Wood County, Ohio, United States",41.5795195,-83.4924358983687
"Saarbrücken, Regionalverband Saarbrücken, Saarland, Deutschland",49.234362,6.996379
"Chicago, Cook County, Illinois, United States",41.8755616,-87.6244212
"Temora Shire Council, New South Wales, 2666, Australia",-34.3830356,147.46858599208093
"Centralia, Marion County, Illinois, 62801, United States",38.5250491,-89.1334037
"Cincinnati, Hamilton County, Ohio, 45202, United States",39.1014537,-84.5124602
"Chicago, Cook County, Illinois, United States",41.8755616,-87.6244212
"Oakland, Alameda County, California, United States",37.8044557,-122.271356
Brasil,-10.3333333,-53.2
"Camden, Camden County, New Jersey, United States",39.9448402,-75.1198911
"Sir Lowry's Pass, City of Cape Town, Western Cape, 7135, South Africa",-34.1176801,18.910297
"Salt Lake City, Salt Lake County, Utah, United States",40.7596198,-111.886797
"溪亭泉, 西更道街, 曲水亭街社区, 大明湖街道, 历下区, 济南市, 山东省, 250000, 中国",36.6671012,117.0192886
"Pasco, Franklin County, Washington, 99301, United States",46.2306739,-119.0921
"Kewanee, Henry County, Illinois, 61443, United States",41.2455927,-89.9248303
"กรุงเทพมหานคร, 10200, ประเทศไทย",13.7524938,100.4935089
"TipS_off bureau tabac, Route de Gué de Constantine, Gué de Constantine, Djasr Kasentina ⴵⵙⴻⵔ ⴽⵙⴻⵏⵟⵉⵏⴰ جسر قسنطينة, Bir Mourad Raïs, Alger, 16260, Algérie ⵍⵣⵣⴰⵢⴻⵔ الجزائر",36.6981025,3.0951001
"Springfield, Clark County, Ohio, United States",39.9234046,-83.810138
"Colvin Park, Kingston Township, DeKalb County, Illinois, 60145, United States",42.1380804,-88.7834283
"Lebec, Kern County, California, 93243, United States",34.8416435,-118.8648189
"Off-White, 127, Northeast 41st Street, Buena Vista, Miami, Miami-Dade County, Florida, 33137, United States",25.8143476,-80.1929369
"Rio Vista, Solano County, California, United States",38.1557502,-121.6913439
"Marcellus, Marcellus Township, Cass County, Michigan, United States",42.0258779,-85.8155576
"Illinois Avenue, Marine Villa, Saint Louis, Missouri, 63118, United States",38.5852679,-90.2236333
"Calimesa, Riverside County, California, 92320, United States",34.0039044,-117.0619774
"Steubenville, Jefferson County, Ohio, 43952, United States",40.3600714,-80.6151034
"Bedford, Cuyahoga County, Ohio, 44146, United States",41.39311,-81.536509
"Fort Wayne, Allen County, Indiana, United States",41.0799898,-85.1386015
"Burbank, Los Angeles County, California, United States",34.1812089,-118.307201
"Portland, Multnomah County, Oregon, United States",45.5202471,-122.674194
"بيروت, محافظة بيروت, 2034 1111, لبنان",33.8959203,35.47843
"Salt Flats Trail, Western Trails, Arlington, Tarrant County, Texas, 76002, United States",32.6336265,-97.0780706
"Sanderstead, London Borough of Croydon, London, Greater London, England, United Kingdom, Birch (Selsdon)",51.33525775,-0.06408949156984275
"Byron Bay, Byron Shire Council, New South Wales, 2481, Australia",-28.6483333,153.6177778
"نواذيبو, ولاية داخلة نواذيبو, موريتانيا",20.9127045,-17.0503094
"Bolivia, Villa América, Lo Chacón, El Monte, Provincia de Talagante, Región Metropolitana de Santiago, Chile",-33.6899965,-71.035406
"Ramsgate, Thanet, Kent, England, United Kingdom",51.3334726,1.4196476
"Marianna, Lee County, Arkansas, United States",34.7737082,-90.7576112
"Amarillo, Potter County, Texas, United States",35.2072185,-101.833824
"La Plata County, Colorado, 81329, United States, Rocky Ridge",37.0973771,-108.0930233
"Mallacoota, Shire of East Gippsland, Victoria, Australia, Lake Wau Wauka",-37.507870100000005,149.92651512146904
"Alger ⴷⵣⴰⵢⴻⵔ الجزائر, Alger Centre ⴷⵣⴰⵢⴻⵔ ⵜⴰⵍⴻⵎⵎⴰⵙⵜ الجزائر الوسطى, Daïra Sidi M'Hamed, Alger, 16007, Algérie ⵍⵣⵣⴰⵢⴻⵔ الجزائر",36.7753606,3.0601882
"Newark, Essex County, New Jersey, United States",40.735657,-74.1723667
"Marietta, Cobb County, Georgia, United States",33.9528472,-84.5496148
"Bourne Lane, Flower Mound, Denton County, Texas, 75022, United States",33.0203441,-97.1473647
"Eugene, Lane County, Oregon, United States",44.0505054,-123.0950506
"Hayward, Alameda County, California, United States",37.6688205,-122.080796
"Hemkenrode, Cremlingen, Landkreis Wolfenbüttel, Niedersachsen, Deutschland",52.226706899999996,10.710483448136292
"Traunstein, Landkreis Traunstein, Bayern, 83278, Deutschland",47.8701474,12.6423403
"Bowling Green, Caroline County, Virginia, United States",38.0498524,-77.3469994
"Glenview, Northfield Township, Cook County, Illinois, United States",42.0700662,-87.8114044
Αιγαίον Πέλαγος / Ege Denizi,38.0580504,25.721561172355706
"Quay County, New Mexico, United States",35.1439219,-103.4183431
"Chesterton, Porter County, Indiana, 46304, United States",41.6105938,-87.0641992
"Étobon, Lure, Haute-Saône, Bourgogne-Franche-Comté, France métropolitaine, 70400, France",47.6441521,6.6750345
"Portland, Multnomah County, Oregon, United States",45.5202471,-122.674194
"Moriarty, Torrance County, New Mexico, 87035, United States",34.9972037,-106.0494876
"溪亭泉, 西更道街, 曲水亭街社区, 大明湖街道, 历下区, 济南市, 山东省, 250000, 中国",36.6671012,117.0192886
"Wedron, LaSalle County, Illinois, 60557, United States",41.4361933,-88.7735303
"Hamburg, Deutschland",53.550341,10.000654
"Eshowe, uMlalazi Local Municipality, King Cetswayo District Municipality, KwaZulu-Natal, South Africa",-28.889191,31.4704425
"Corbigny, Clamecy, Nièvre, Bourgogne-Franche-Comté, France métropolitaine, 58800, France",47.2574315,3.6843003
"Province d'Aousserd إقليم أوسرد, Dakhla-Oued Ed-Dahab ⴷⴰⵅⵍⴰ-ⵡⴰⴷ ⴷⴰⵀⴰⴱ الداخلة-وادي الذهب, Maroc ⵍⵎⵖⵔⵉⴱ المغرب",22.0724145,-14.445243230160031
"Petersburg, Menard County, Illinois, 62675, United States",40.0117151,-89.8481652
"Perimetro Urbano Pereira, Pereira, AMCO, Area Metropolitana Centro Occidente, Risaralda, RAP Eje Cafetero, Colombia",4.8143159,-75.6946778
English Channel / La Manche,50.4924668,1.054682
"Croydon, Greater London, England, CR0 1SZ, United Kingdom",51.3713049,-0.101957
"Ulster County, New York, United States, Mongaup Mountain",41.9909235,-74.6840456
"Junín, Partido de Junín, Buenos Aires, Argentina",-34.5934412,-60.9461678
"Burbank, Los Angeles County, California, United States",34.1812089,-118.307201
"San Bernardino County, California, United States",34.8253019,-116.0833144
"Bahia, Região Nordeste, Brasil",-12.285251,-41.9294776
"宁波市, 浙江省, 中国",29.8622194,121.6203873
"Amazonia, Andrew County, Missouri, United States",39.8870003,-94.892021
English Channel / La Manche,50.4924668,1.054682
"Bass Strait, Kiama, The Council of the Municipality of Kiama, New South Wales, 2533, Australia",-34.6786912,150.8539828
"Amazonia, Calle 12, Manila, Comuna 14 - El Poblado, Perímetro Urbano Medellín, Medellín, Valle de Aburrá, Antioquia, RAP del Agua y la Montaña, 050021, Colombia",6.2135235,-75.5711578
"Salchau (Wüstung), Letzlingen, Gardelegen, Altmarkkreis Salzwedel, Sachsen-Anhalt, 39638, Deutschland",52.4438124,11.5761196
"Columbia, Boone County, Missouri, United States",38.951883,-92.3337366
"Palma Soriano, Santiago de Cuba, 92610, Cuba",20.2126686,-75.9973941
"Sunbright, Morgan County, East Tennessee, Tennessee, United States",36.2434093,-84.6699442
"Toyota Central Motors, 3, Main Shahrah-e-Faisal Near Awami Markaz, Shahrah-e-Faisal (Drigh Road), الحمراء, گلشن اقبال ٹاؤن, ضلع کراچی شرقی, کراچی ڈویژن, سندھ, 75350, پاکستان",24.8701057,67.0888007
"Pittsburgh, Allegheny County, Pennsylvania, United States",40.4416941,-79.9900861
"Stettin, Pohnsdorfer Straße, Sierksdorf, Ostholstein-Mitte, Ostholstein, Schleswig-Holstein, 23730, Deutschland",54.07376965,10.771117271687753
"Schievelbein, Bahnhofstraße, Rochsburg, Lunzenau, Mittelsachsen, Sachsen, 09328, Deutschland",50.947476,12.7638473
"العريش, شمال سيناء, مصر",31.1272509,33.8045859
"Beauvais, Oise, Hauts-de-France, France métropolitaine, 60000, France",49.4300997,2.0823355
"Brilon, Hochsauerlandkreis, Nordrhein-Westfalen, 59929, Deutschland",51.3955721,8.5677743
"Atlanta, Macon County, Missouri, United States",39.898646,-92.4810208
"Около дома Станиславского, 9 с3, Вознесенский переулок, 54, Пресненский район, Москва, Центральный федеральный округ, 125375, Россия",55.758285650000005,37.60436886144644
"Flint, Genesee County, Michigan, United States",43.0161693,-83.6900211
"Glendo, Platte County, Wyoming, United States",42.502747,-105.026083
"Maywood, Proviso Township, Cook County, Illinois, 60153, United States",41.8789942,-87.8436412
"Perímetro Urbano Medellín, Medellín, Valle de Aburrá, Antioquia, RAP del Agua y la Montaña, Colombia",6.2443382,-75.573553
"Amsterdam, Noord-Holland, Nederland",52.3730796,4.8924534
"Pian San Giacomo, Mesocco, Moësa, Graubünden/Grischun/Grigioni, 6565, Schweiz/Suisse/Svizzera/Svizra",46.4203657,9.2269445
"Cardiff, Cymru / Wales, CF10 2AF, United Kingdom",51.4816546,-3.1791934
"El Retiro, Oriente, Antioquia, RAP del Agua y la Montaña, 055437, Colombia",6.0572745,-75.502611
"القاهرة, مصر",30.0443879,31.2357257
"Burbank, Los Angeles County, California, United States",34.1812089,-118.307201
"196070, Eesti, Suomenlahti / Soome laht / Финский залив",59.8737114,26.323049062171442
"City of Troy, Rensselaer County, New York, United States",42.7284117,-73.6917878
"Cheyenne, Laramie County, Wyoming, United States",41.139981,-104.820246
"Courtyard Fort Worth I-30 West Near NAS JRB, 6530, West Freeway, Fort Worth, Tarrant County, Texas, 76116, United States",32.735656399999996,-97.43007509825838
"Brindisi, Puglia, Italia",40.63591975,17.688443357842537
"Istres, Bouches-du-Rhône, Provence-Alpes-Côte d'Azur, France métropolitaine, France",43.5139051,4.9884323
"Tours, Indre-et-Loire, Centre-Val de Loire, France métropolitaine, France",47.3900474,0.6889268
"Croydon, Greater London, England, CR0 1SZ, United Kingdom",51.3713049,-0.101957
"Tres Esquinas, Pereira, AMCO, Area Metropolitana Centro Occidente, Risaralda, RAP Eje Cafetero, Colombia",4.71507735,-75.7508642033295
"Goodwin, St. Francis County, Arkansas, 72340, United States",34.9381496,-91.0209529
"Denton County, Texas, United States",33.1838787,-97.1413417
"Atlantic Ocean, Cameron County, Texas, 78597, United States",26.0745309,-97.160961
جنوب المحيط الأطلسي,-45.0,-15.0
"Ovalle, Provincia de Limarí, Región de Coquimbo, Chile",-30.6030819,-71.2029894
"Le Pavillon Garries, 2544, Frederick Douglass Boulevard, Harlem, Manhattan, New York County, City of New York, New York, 10039, United States",40.8168229,-73.9460805
"Uniontown, Fayette County, Pennsylvania, United States",39.900076,-79.7164326
"Port Authority of Trinidad and Tobago, Downtown, Port of Spain, Trinidad and Tobago",10.6472492,-61.51139452899346
"Orvin, Arrondissement administratif du Jura bernois, Région administrative du Jura bernois, Bern/Berne, 2534, Schweiz/Suisse/Svizzera/Svizra",47.1606885,7.212695
"Senlis, Montreuil-sur-Mer, Pas-de-Calais, Hauts-de-France, France métropolitaine, 62310, France",50.5331612,2.1523287
"Basel, Basel-Stadt, Schweiz/Suisse/Svizzera/Svizra",47.5581077,7.5878261
"Mount Waverley, Waverley Rail Trail, Mount Waverley, Melbourne, City of Monash, Victoria, 3149, Australia",-37.8752637,145.1281258
"Malmö, Malmö kommun, Skåne län, Sverige",55.6052931,13.0001566
"Hannover, Region Hannover, Niedersachsen, Deutschland",52.3744779,9.7385532
"Zagreb, Grad Zagreb, Hrvatska",45.84264135,15.962231476593626
"Кӯлоб, РҶ033, Кӯлоб, Ноҳияи Кӯлоб, Вилояти Хатлон, 735360, Тоҷикистон",37.9161378,69.7815382
"Mazamet, Castres, Tarn, Occitanie, France métropolitaine, 81200, France",43.4902317,2.3764363
"Ciudad Serdán, Chalchicomula de Sesma, Puebla, 75520, México",18.9897368,-97.4484353
"Saint Louis, Missouri, United States",38.6280278,-90.1910154
"Chocó, RAP Pacífico, Colombia",6.0000085,-77.0000086
"Altenkirchen (Westerwald), Altenkirchen-Flammersfeld, Landkreis Altenkirchen (Westerwald), Rheinland-Pfalz, 57610, Deutschland",50.6880109,7.6477412
"Mirabella Hills, Αγίου Νικολάου - Ελούντας, Χαβάνια, Κατσίκια, Κοινότητα Αγίου Νικολάου, Δημοτική Ενότητα Αγίου Νικολάου, Δήμος Αγίου Νικολάου, Περιφερειακή Ενότητα Λασιθίου, Περιφέρεια Κρήτης, Αποκεντρωμένη Διοίκηση Κρήτης, 721 00, Ελλάς",35.2180313,25.709029491716315
"Near Earth Autonomy, 7372, Meade Street, Homewood, Point Breeze North, Pittsburgh, Allegheny County, Pennsylvania, 15208, United States",40.4490985,-79.8982453
"بنغازي, ليبيا",32.1288331,20.0817204
English Channel / La Manche,50.4924668,1.054682
"Francisco Rueda, Huimanguillo, Tabasco, México",17.8346002,-93.9307689
"Selby, North Yorkshire, England, United Kingdom",53.785097,-1.099040720243205
"Nürnberg, Bayern, Deutschland",49.453872,11.077298
"Greater London, England, United Kingdom, London",51.4893335,-0.14405508452768728
"Около дома Станиславского, 9 с3, Вознесенский переулок, 54, Пресненский район, Москва, Центральный федеральный округ, 125375, Россия",55.758285650000005,37.60436886144644
"Croydon, Greater London, England, CR0 1SZ, United Kingdom",51.3713049,-0.101957
"Kellogg, Shoshone County, Idaho, 83837, United States",47.5382349,-116.118887
"Embassy Suites by Hilton Dallas Near the Galleria, 14021, Noel Road, Dallas, Dallas County, Texas, 75240, United States",32.9384683,-96.81888258922507
"南京市, 江苏省, 中国",32.0615513,118.7915619
"Newhall, Santa Clarita, Los Angeles County, California, 91321, United States",34.3798765,-118.5291917
"Oran, Daïra Oran, Oran, Algérie ⵍⵣⵣⴰⵢⴻⵔ الجزائر",35.7044415,-0.6502981
"Off-leash Dog Area, La Grande Avenue, San Francisco, California, 94134, United States",37.71493055,-122.42755262094073
"Banjul, Gambia",13.45535,-16.575646
"Clifton, Lackawanna County, Pennsylvania, 18627, United States",41.2228616,-75.5476872
"Lakehurst, Ocean County, New Jersey, United States",40.014561,-74.3112574
"Stuttgart, Baden-Württemberg, Deutschland",48.7784485,9.1800132
"Halle, Halle-Vilvoorde, Vlaams-Brabant, Vlaanderen, België / Belgique / Belgien",50.7360524,4.2374349
"وادي حلفا, الولاية الشمالية, السودان",21.8005,31.350737
"Bistrița, Bistrița-Năsăud, România",47.1327012,24.4963949
"Daytona Beach, Volusia County, Florida, United States",29.2108147,-81.0228331
"San Luis, Argentina",-33.2762202,-65.9515546
"Wau, Morobe, Momase Region, 561, Papua Niugini",-7.3403142,146.7172732
"Warszawa, województwo mazowieckie, Polska",52.2319581,21.0067249
"Mannheim, Baden-Württemberg, Deutschland",49.4892913,8.4673098
"Warszawa, województwo mazowieckie, Polska",52.2319581,21.0067249
"Oostende, West-Vlaanderen, Vlaanderen, 8400, België / Belgique / Belgien",51.2258565,2.919496
"Croydon, Greater London, England, CR0 1SZ, United Kingdom",51.3713049,-0.101957
"München, Bayern, Deutschland",48.1371079,11.5753822
"Brindisi, Puglia, Italia",40.63591975,17.688443357842537
"Saint-Sauveur, Dijon, Côte-d'Or, Bourgogne-Franche-Comté, France métropolitaine, 21270, France",47.35727,5.41413
"Frankfurt am Main, Hessen, Deutschland",50.1106444,8.6820917
"Bozeman, Gallatin County, Montana, United States",45.6794293,-111.044047
"U.S. Coast Guard, Route 001, Port of Pago Pago, Pago Pago, Maʻopūtasi County, Eastern District, American Samoa, 96799, United States",-14.273456,-170.701868
"Кандалакша, городское поселение Кандалакша, Кандалакшский район, Мурманская область, Северо-Западный федеральный округ, 184041, Россия",67.151442,32.4130551
"Guadalupe, Zacatecas, México",22.78238425,-102.45050578563979
"Marseille, Bouches-du-Rhône, Provence-Alpes-Côte d'Azur, France métropolitaine, 13000, France",43.2961743,5.3699525
Mediterranean Sea,35.0000035,19.9999957
"Pontoise, Val-d'Oise, Île-de-France, France métropolitaine, France",49.0508845,2.1008067
"Datia, Datia District, Madhya Pradesh, India",25.75,78.5
"Somerton, Tamworth Regional Council, New South Wales, 2340, Australia",-30.9392349,150.6406221
"Corsavy, Céret, Pyrénées-Orientales, Occitanie, France métropolitaine, 66150, France",42.4662469,2.5792263
"Balbuena, Calzada General Ignacio Zaragoza, Colonia Santa Cruz Aviación, Venustiano Carranza, Ciudad de México, 15900, México",19.4231214,-99.1023994
"Māngere, Māngere-Ōtāhuhu, Auckland, 2153, New Zealand / Aotearoa",-36.9741065,174.7994402
"São Paulo, Região Imediata de São Paulo, Região Metropolitana de São Paulo, Região Geográfica Intermediária de São Paulo, São Paulo, Região Sudeste, Brasil",-23.5506507,-46.6333824
"Cleveland, Cuyahoga County, Ohio, United States",41.4996574,-81.6936772
"Langeoog, Landkreis Wittmund, Niedersachsen, 26465, Deutschland",53.7462909,7.481842
"Billings, Yellowstone County, Montana, United States",45.7874957,-108.49607
"Monte Bardia Paragliding Take-Off, SP26, Durgali/Dorgali, Nuoro, Sardigna/Sardegna, 08022, Italia",40.2754085,9.594506388453773
"Andes, Suroeste, Antioquia, RAP del Agua y la Montaña, Colombia",5.627871750000001,-75.94516744951865
"Kisumu, Nyanza, 40100, Kenya",-0.1029109,34.7541761
"Debrecen, Debreceni járás, Hajdú-Bihar vármegye, Észak-Alföld, Alföld és Észak, Magyarország",47.531399,21.6259782
"三豊市, 香川県, 日本, 志々島",34.27094515,133.67685879642858
"Kiel, Schleswig-Holstein, Deutschland",54.3227085,10.135555
"Guanabara, Campinas, Região Imediata de Campinas, Região Metropolitana de Campinas, Região Geográfica Intermediária de Campinas, São Paulo, Região Sudeste, 13073-012, Brasil",-22.888889,-47.065556
"București, România",44.4361414,26.1027202
"東京都, 日本",35.6840574,139.7744912
"Innisfail, Cassowary Coast Regional, Queensland, 4860, Australia",-17.5241721,146.0311418
"Graubünden/Grischun/Grigioni, Schweiz/Suisse/Svizzera/Svizra",46.6960615,9.6027351
"Soest, Kreis Soest, Nordrhein-Westfalen, 59494, Deutschland",51.5725501,8.1061259
"Mount Dandenong, Melbourne, Shire of Yarra Ranges, Victoria, 3767, Australia",-37.8361703,145.3509803
"England, United Kingdom, Somerset",51.161750850000004,-3.0753867062227487
"Jersey, Channel Islands",49.21230655,-2.1255999596428845
"Amsterdam-Bataviaweg, Schiphol-Oost, Schiphol, Haarlemmermeer, Noord-Holland, Nederland, 1117 EW, Nederland",52.3025593,4.7984687
"Regina, Division No. 6, Saskatchewan, Canada",50.44876,-104.61731
"Banjul, Gambia",13.45535,-16.575646
"بغداد, بلدية المنطقة الخضراء, محافظة بغداد, العراق",33.3061701,44.3872213
"Ciudad de México, México",19.4326296,-99.1331785
"Amsterdam, Noord-Holland, Nederland",52.3730796,4.8924534
"Darwin, City of Darwin, Northern Territory, 0800, Australia",-12.46044,130.8410469
"Paris, Île-de-France, France métropolitaine, France",48.8534951,2.3483915
"Rio de Janeiro, Região Geográfica Imediata do Rio de Janeiro, Região Metropolitana do Rio de Janeiro, Região Geográfica Intermediária do Rio de Janeiro, Rio de Janeiro, Região Sudeste, Brasil",-22.9110137,-43.2093727
"Miles City, Custer County, Montana, United States",46.4085273,-105.840981
"Katherine, Town of Katherine, Northern Territory, Australia",-14.4646157,132.2635993
"Juneau, Alaska, United States",58.3019496,-134.419734
"Haren, Ville de Bruxelles - Stad Brussel, Brussel-Hoofdstad - Bruxelles-Capitale, Région de Bruxelles-Capitale - Brussels Hoofdstedelijk Gewest, België / Belgique / Belgien",50.8909441,4.4157553
"Manzanares, Alto Oriente, Caldas, RAP del Agua y la Montaña, Colombia",5.253198,-75.1544544
"Oklahoma City, Oklahoma County, Oklahoma, United States",35.4729886,-97.5170536
"Lumbo, Ilha de Moçambique, Nampula, Moçambique",-15.0193104,40.667623
"Guayaquil, Guayas, Ecuador",-2.1900563,-79.8868741
"Amsterdam-Bataviaweg, Schiphol-Oost, Schiphol, Haarlemmermeer, Noord-Holland, Nederland, 1117 EW, Nederland",52.3025593,4.7984687
"Vlissingen, Zeeland, Nederland",51.49433865,3.415005767601362
"Forest-in-Teesdale, Forest and Frith, County Durham, North East, England, DL12 0HA, United Kingdom",54.664193,-2.2063877
"Konstanz, Bärtiswil, Rothenburg, Luzern, 6023, Schweiz/Suisse/Svizzera/Svizra",47.096913,8.2712723
"Barcelona, Barcelonès, Barcelona, Catalunya, 08001, España",41.3828939,2.1774322
"Centro, Vitória da Conquista, Região Geográfica Imediata de Vitória da Conquista, Região Geográfica Intermediária de Vitória da Conquista, Bahia, Região Nordeste, 45000-000, Brasil, Rio Verruga",-14.8512298,-40.8396396
"Hop on Hop Off, Langelinie, Østerbro, København, Københavns Kommune, Region Hovedstaden, 1259, Danmark",55.6934984,12.5985701
"Ajnala Tahsil, Amritsar District, Punjab, India, Upper Bari Doab Canal - Lahore branch",31.7621021,74.8295989
"Hannover, Region Hannover, Niedersachsen, Deutschland",52.3744779,9.7385532
North Sea / Nordsee / Noordzee / Nordsøen / Nordsjøen / Mer du Nord,56.0026997,2.8144672799047834
"Gosport, Hampshire, England, United Kingdom",50.7952074,-1.1210853
"Walker's Point Music Hall, 534; 536; 538, West National Avenue, Walker's Point, Milwaukee, Milwaukee County, Wisconsin, 53204, United States",43.02340035,-87.91802810719517
"Essaouira الصويرة, Pachalik d'Essaouira باشوية الصويرة, Province d'Essaouira ⵍⵉⵇⵍⵉⵎ ⵏ ⵚⵡⵉⵔⴰ إقليم الصويرة, Marrakech-Safi ⵎⵕⵕⴰⴽⵛ-ⴰⵙⴼⵉ مراكش-أسفي, Maroc ⵍⵎⵖⵔⵉⴱ المغرب",31.5118281,-9.7620903
"Denpasar, Dangin Puri, Denpasar Timur, Bali, Nusa Tenggara, 80244, Indonesia",-8.6524973,115.2191175
خلیج عمان,24.213802899999997,58.9845822868196
"Lipari, Messina, Sicilia, Italia, Isola di Stromboli",38.791796250000004,15.211175249544858
"El Segundo, Los Angeles County, California, 90245, United States",33.917028,-118.4156337
北部湾/Vịnh Bắc Bộ,19.5000383,107.36443697168565
"Hannover, Region Hannover, Niedersachsen, Deutschland",52.3744779,9.7385532
"Canberra Drive near Tweed Street, stop 35, Canberra Drive, Dorrington, Ashgrove, Greater Brisbane, Queensland, 4060, Australia",-27.4352201,152.9837377
"Cluj-Napoca, Zona Metropolitană Cluj, Cluj, România",46.769379,23.5899542
"Osijek, Grad Osijek, Osječko-baranjska županija, 31000, Hrvatska",45.5548793,18.6953685
"Berlin, Deutschland",52.5170365,13.3888599
"Rio de Janeiro, Região Geográfica Imediata do Rio de Janeiro, Região Metropolitana do Rio de Janeiro, Região Geográfica Intermediária do Rio de Janeiro, Rio de Janeiro, Região Sudeste, Brasil",-22.9110137,-43.2093727
"Brandenburg, Deutschland",52.8455492,13.2461296
Mediterranean Sea,35.0000035,19.9999957
"Chicago, Cook County, Illinois, United States",41.8755616,-87.6244212
"Anacapri, Napoli, Campania, Italia, Capri",40.54877475,14.22808744705355
Mediterranean Sea,35.0000035,19.9999957
"Beishuang Temple Near the Sea, 霞浦县, 宁德市, 福建省, 中国",26.6997339,120.3553574
"Armstrong, Unorganized Thunder Bay District, Thunder Bay District, Northwestern Ontario, Ontario, P0T 1A0, Canada",50.302131,-89.0373698
"Atlanta, Fulton County, Georgia, United States",33.7489924,-84.3902644
"Elands Bay Close, Wentworth, eThekwini Ward 66, Durban, eThekwini Metropolitan Municipality, KwaZulu-Natal, 4052, South Africa",-29.9230825,31.0019394
"Atlantic Ocean, Cameron County, Texas, 78597, United States",26.0745309,-97.160961
"București, România",44.4361414,26.1027202
日本海 / Японское море / 동해,43.060053350000004,137.33530126992395
"Roma, Roma Capitale, Lazio, Italia",41.8933203,12.4829321
"North Ayrshire, Alba / Scotland, United Kingdom, Arran",55.57743995,-5.252119254274354
"Ayr, South Ayrshire, Alba / Scotland, KA7 1NE, United Kingdom",55.4628044,-4.6302502
"Near Offices Perdizes, 446, Rua Turiassu, Perdizes, São Paulo, Região Imediata de São Paulo, Região Metropolitana de São Paulo, Região Geográfica Intermediária de São Paulo, São Paulo, Região Sudeste, 05005-000, Brasil",-23.533227750000002,-46.66720799209275
"Campbeltown, Argyll and Bute, Alba / Scotland, PA28 6AD, United Kingdom",55.4241858,-5.6051005
"San Juan, Puerto Rico, United States",18.465299,-66.116666
"St. Thomas, Ontario, Canada",42.779022,-81.1929882
"Miami, Miami-Dade County, Florida, United States",25.7741728,-80.19362
"Байсерке аэродромы, Багайбай Алимова, Коктал, Талғар ауданы, Алматы облысы, 040704, Қазақстан",43.447586799999996,77.05651080905444
"Sabang, Aceh, Sumatera, Indonesia",5.8927453,95.3225751
"Travelodge Las Vegas Airport North/Near the Strip, Koval Lane, Paradise, Clark County, Nevada, 89158, United States",36.098267750000005,-115.16411744999999
"Kupang, Nusa Tenggara Timur, Nusa Tenggara, Indonesia",-10.1632209,123.6017755
"Jalan Timor Raya, Noelbaki, Kupang, Nusa Tenggara Timur, Nusa Tenggara, Indonesia",-10.1295907,123.7077163
"郑州新郑机场, Yungang Road, 岗孙, 新郑市, 郑州市, 河南省, 450019, 中国",34.528377899999995,113.84912137580137
"Queensland Off Road Large Scale, 1485, Old Cleveland Road, Belmont, Greater Brisbane, Queensland, 4153, Australia",-27.50679155,153.1336795013321
Indian Ocean,-9.9999999,69.9999999
"Wyndham, Shire Of Wyndham-East Kimberley, Western Australia, 6740, Australia",-15.4867977,128.1236196
"昆明市, 云南省, 中国",25.0363006,102.7086139
"Pine Creek, Victoria Daly Region, Northern Territory, 0847, Australia",-13.8240162,131.835484
"Salt Lake City, Salt Lake County, Utah, United States",40.7596198,-111.886797
"Miles City, Custer County, Montana, United States",46.4085273,-105.840981
"Castel Gandolfo, Roma Capitale, Lazio, Italia, 18 hole fairway near green",41.73716705,12.628098369971475
"Llanfair, Stoke Road, Pattons, Taunton, Somerset, England, TA3 5BZ, United Kingdom",50.99609075,-3.048310519969391
"Alger ⴷⵣⴰⵢⴻⵔ الجزائر, Alger Centre ⴷⵣⴰⵢⴻⵔ ⵜⴰⵍⴻⵎⵎⴰⵙⵜ الجزائر الوسطى, Daïra Sidi M'Hamed, Alger, 16007, Algérie ⵍⵣⵣⴰⵢⴻⵔ الجزائر",36.7753606,3.0601882
"Couva-Tabaquite-Talparo, Trinidad and Tobago, Trinidad",10.443024300000001,-61.26130538878063
"Tizi Ɛmer, Ain Zaouia, Daïra Draâ El Mizan, Tizi Ouzou, 15056, Algérie ⵍⵣⵣⴰⵢⴻⵔ الجزائر",36.5939375,3.91993
"Near Offices Perdizes, 446, Rua Turiassu, Perdizes, São Paulo, Região Imediata de São Paulo, Região Metropolitana de São Paulo, Região Geográfica Intermediária de São Paulo, São Paulo, Região Sudeste, 05005-000, Brasil",-23.533227750000002,-46.66720799209275
"昆明市, 云南省, 中国",25.0363006,102.7086139
"Botwood, Newfoundland, Newfoundland and Labrador, A0H 1E0, Canada",49.14219,-55.343628
"Янаул, городское поселение Янаул, Янаульский район, Башкортостан, Приволжский федеральный округ, Россия",56.27076,54.931702
"Strada Budapesta, Belvedere, Târgu Mureș, Zona Metropolitană Târgu Mureș, Mureș, 540347, România",46.5258986,24.5725012
"Palm Springs, Riverside County, California, United States",33.772179449999996,-116.49529769683983
"La Esperanza, Tunja, Centro, Boyacá, RAP (Especial) Central, Colombia",5.5307334,-73.41307765807761
Norge,64.5731537,11.52803643954819
"Fairfield, Utah County, Utah, United States",40.2621714,-112.092996
"Institut für Orientalistik, 2-4, Tür 4.1, Spitalgasse, Alservorstadt, KG Alsergrund, Alsergrund, Wien, 1090, Österreich",48.2171331,16.3515022
"Ukiah, Mendocino County, California, 95482, United States",39.1501662,-123.2077861
"Seattle, King County, Washington, United States",47.6038321,-122.330062
"Lisboa, Portugal",38.7077507,-9.1365919
"喜瑪拉雅餐館 Himalaya Restaurant, 1/F A 22-30, 大王東街 Tai Wong Street East, 灣仔南 Wan Chai South, 灣仔 Wan Chai, 灣仔區 Wan Chai District, 香港島 Hong Kong Island, 香港 Hong Kong, 中国",22.2761593,114.1715787
"Archerfield Airport, Ashover Road, Rocklea, Greater Brisbane, Queensland, 4106, Australia",-27.569485999999998,153.00873765975757
North Sea / Nordsee / Noordzee / Nordsøen / Nordsjøen / Mer du Nord,56.0026997,2.8144672799047834
"Red Springs, Robeson County, North Carolina, 28377, United States",34.815158,-79.1837649
"Nouméa, Province Sud, Nouvelle-Calédonie, 98800, France",-22.2745264,166.442419
"الخرطوم, ولاية الخرطوم, السودان",15.5635972,32.5349123
"الخرطوم, ولاية الخرطوم, السودان",15.5635972,32.5349123
Gibraltar,36.1285933,-5.3474761
"Éire / Ireland, Brandon Head",52.2757233,-10.2429647
"Trammel, Allen County, Kentucky, United States",36.7853194,-86.3533242
"Ploiești Nord, Strada General Ion Dragalina, Transilvaniei, Ploiești, Prahova, 100121, România",44.95368,26.0271744
"Rossiter Park Off Leash Dog Park, Kimball Street, Aitkenvale, Townsville, Townsville City, Queensland, 4814, Australia",-19.3074674,146.76668647187117
"Αποκεντρωμένη Διοίκηση Αιγαίου, Ελλάς, Ρόδος",36.172529749999995,27.91940163839584
"Rio de Janeiro, Região Geográfica Imediata do Rio de Janeiro, Região Metropolitana do Rio de Janeiro, Região Geográfica Intermediária do Rio de Janeiro, Rio de Janeiro, Região Sudeste, Brasil",-22.9110137,-43.2093727
North Sea / Nordsee / Noordzee / Nordsøen / Nordsjøen / Mer du Nord,56.0026997,2.8144672799047834
"Chocolate Bayou TK Off-Fairmont-Arc Junction Propylene Line, Galveston County, Texas, 77517, United States",29.4150457,-95.1137941
"State Bank of India, Kankurgachi, More, near Sbi Branch, Bagmari, Bagmari Lane, BRS-10, Maniktala, Kolkata, Kolkata District, West Bengal, 700054, India",22.580492999999997,88.38951904999999
"Saint-Donat, Matawinie, Lanaudière, Québec, J0T 2C0, Canada",46.318718,-74.221916
"Columbus, Muscogee County, Georgia, United States",32.4610708,-84.9880449
"Vetlanda kommun, Jönköpings län, Sverige, Hallö",57.538006100000004,14.855872956440011
"PesaPoint POS Oil Libya Mascot Service Station, Mombasa Road, Mtito Andei, Kibwezi East, Makueni, East Kenya, Kenya",-2.6925299,38.1651715
"Pune City, Pune, Maharashtra, India",18.521428,73.8544541
"昆明市, 云南省, 中国",25.0363006,102.7086139
"昆明市, 云南省, 中国",25.0363006,102.7086139
"University of Papua New Guinea, Waigani Campus, Lailai Place, Waigani, Port Moresby, National Capital District, Southern Region, 000, Papua Niugini",-9.40997445,147.17343971106237
"宜宾市, 四川省, 中国",28.58689,104.718661
"Canal Creek, Livingstone Shire, Queensland, Australia",-22.947057,150.4260131367603
"Lakeside, Box Elder County, Utah, United States",41.2224303,-112.8655343
"Музеј Југославије, 6, Михаила Мике Јанковића, МЗ Четврти Јули, Београд (Савски венац), Градска општина Савски венац, Београд, Град Београд, Централна Србија, 11000, Србија",44.788029449999996,20.452235589959628
"Memphis, Shelby County, West Tennessee, Tennessee, United States",35.1460249,-90.0517638
"China, Nuevo León, México",25.491579899999998,-98.98111150455688
"Southern Region, Papua Niugini, New Guinea",-5.522593049999999,142.08709052245882
"Seklowagh Site, Gambell, Unorganized Borough, Alaska, United States",63.7757752,-171.734462796469
"Музеј Југославије, 6, Михаила Мике Јанковића, МЗ Четврти Јули, Београд (Савски венац), Градска општина Савски венац, Београд, Град Београд, Централна Србија, 11000, Србија",44.788029449999996,20.452235589959628
"Fredrikstad Turistkontor, Voldportgaten, Gamlebyen, Fredrikstad, Viken, 1632, Norge",59.2039226,10.9533869
"Montréal, Agglomération de Montréal, Montréal (région administrative), Québec, Canada",45.5031824,-73.5698065
"Barneville-la-Bertran, Lisieux, Calvados, Normandie, France métropolitaine, 14600, France",49.3891667,0.1886111
"Flamanville, Rouen, Seine-Maritime, Normandie, France métropolitaine, 76970, France",49.6348243,0.839636
"Carentan, Carentan-les-Marais, Saint-Lô, Manche, Normandie, France métropolitaine, 50500, France",49.29476595,-1.252311940606591
"昆明市, 云南省, 中国",25.0363006,102.7086139
"桂林街 Kweilin Street, 元洲 Un Chau, 深水埗 Sham Shui Po, 深水埗區 Sham Shui Po District, 九龍 Kowloon, 香港 Hong Kong, 000000, 中国",22.3306444,114.1614963
"Porto Alegre, Região Geográfica Imediata de Porto Alegre, Região Metropolitana de Porto Alegre, Região Geográfica Intermediária de Porto Alegre, Rio Grande do Sul, Região Sul, Brasil",-30.0324999,-51.2303767
"Portland, Cumberland County, Maine, United States",43.6589742,-70.2569578
شمال المحيط الأطلسي,40.0,-40.0
"Port Logan, Dumfries and Galloway, Alba / Scotland, DG9 9NL, United Kingdom",54.7234041,-4.9546277
"Naper, Boyd County, Nebraska, United States",42.9636101,-99.0967626
"Blythburgh, East Suffolk, Suffolk, England, United Kingdom",52.3209345,1.5979437
"Preswick Prom, Esplanade, Prestwick, South Ayrshire, Alba / Scotland, KA9 1QL, United Kingdom",55.503242,-4.620250393209877
"São Paulo, Região Imediata de São Paulo, Região Metropolitana de São Paulo, Região Geográfica Intermediária de São Paulo, São Paulo, Região Sudeste, Brasil",-23.5506507,-46.6333824
"Музеј Југославије, 6, Михаила Мике Јанковића, МЗ Четврти Јули, Београд (Савски венац), Градска општина Савски венац, Београд, Град Београд, Централна Србија, 11000, Србија",44.788029449999996,20.452235589959628
"Copeland, Gray County, Kansas, United States",37.5419685,-100.6296
"Alaska, United States",64.4459613,-149.680909
"Rio Doce, Região Geográfica Imediata de Ponte Nova, Região Geográfica Intermediária de Juiz de Fora, Minas Gerais, Região Sudeste, Brasil",-20.2447972,-42.8970432
Bosna i Hercegovina / Босна и Херцеговина,44.3053476,17.5961467
"Sydney, Council of the City of Sydney, New South Wales, Australia",-33.8698439,151.2082848
"Sydney, Council of the City of Sydney, New South Wales, Australia",-33.8698439,151.2082848
"Telemark, Bygdøy, Frogner, Oslo, 0286, Norge",59.9063655,10.6848421
"Komárom, Komáromi járás, Komárom-Esztergom vármegye, Közép-Dunántúl, Dunántúl, Magyarország",47.7417349,18.1218256
"Birkenhead, Wirral, Liverpool City Region, England, CH41 2XU, United Kingdom",53.3895177,-3.0248007
"Hanford, Kings County, California, 93230, United States",36.3274502,-119.6456844
"Jacksonville, Duval County, Florida, United States",30.3321838,-81.655651
"Seljord, Vestfold og Telemark, Norge",59.57344535,8.512253409438468
"Lewes, East Sussex, England, United Kingdom",50.8746139,0.005115324110936268
"Central Business District, CBD division, Starehe, Nairobi, 46464, Kenya",-1.2832533,36.8172449
"Calzada Nicaragua, Residencial Altos de Las Hadas, Tegucigalpa, Distrito Central, Francisco Morazán, 15012, Honduras",14.0451676,-87.2305488
"Van Nuys Neighborhood Council District, Los Angeles, Los Angeles County, California, 91411, United States",34.1866193,-118.4486675
"Atlantic Ocean, Cameron County, Texas, 78597, United States",26.0745309,-97.160961
"Орлівка, Новгород-Сіверська міська громада, Новгород-Сіверський район, Чернігівська область, 16070, Україна",51.91383,32.816158
English Channel / La Manche,50.4924668,1.054682
"Port Authority of Trinidad and Tobago, Downtown, Port of Spain, Trinidad and Tobago",10.6472492,-61.51139452899346
"Burbank, Los Angeles County, California, United States",34.1812089,-118.307201
"China, Nuevo León, México",25.491579899999998,-98.98111150455688
"Nusa Tenggara Timur, Nusa Tenggara, Indonesia, Timor",-9.346017100000001,124.63707741045215
"Redesdale, City of Greater Bendigo, Victoria, 3444, Australia",-37.020796,144.5315217
"Off the Hook Seafood & Super Burritos, Telegraph Avenue, Northgate / Koreatown, Downtown Oakland, Oakland, Alameda County, California, 94612, United States",37.814396,-122.268139
"Lagoa Santa, Região Geográfica Imediata de Rio Verde, Região Geográfica Intermediária de Rio Verde, Goiás, Região Centro-Oeste, Brasil",-19.1832417,-51.3998026
"Marion, Smyth County, Virginia, 24354, United States",36.8331284,-81.519515
"Casablanca ⵜⵉⴳⵎⵉ ⵜⵓⵎⵍⵉⵍⵜ الدار البيضاء, préfecture d'arrondissements de Casablanca-Anfa عمالة مقاطعات الدار البيضاء أنفا, Pachalik de Casablanca, Préfecture de Casablanca عمالة الدار البيضاء, Casablanca-Settat ⵜⵉⴳⵎⵉ ⵜⵓⵎⵍⵉⵍⵜ-ⵙⵟⵟⴰⵜ الدار البيضاء-سطات, Maroc ⵍⵎⵖⵔⵉⴱ المغرب",33.5945144,-7.6200284
"昆明市, 云南省, 中国",25.0363006,102.7086139
"Morgantown, Monongalia County, West Virginia, United States",39.6296809,-79.9559437
"Perth Street near Wiles Street stop 34/35, Perth Street, Camp Hill, Greater Brisbane, Queensland, 4152, Australia",-27.487412,153.077998
"Sweetwater, Nolan County, Texas, 79556, United States",32.4709519,-100.405938
"Washington, District of Columbia, United States",38.8950368,-77.0365427
"Hindhead, Waverley, Surrey, England, GU26 6AA, United Kingdom",51.1132995,-0.7332662
"Roye, Montdidier, Somme, Hauts-de-France, France métropolitaine, 80700, France",49.6986186,2.7930755
"China, Nuevo León, México",25.491579899999998,-98.98111150455688
"Swanage, Dorset, England, United Kingdom",50.6086976,-1.9571971
"Bengaluru, Bangalore North, Bengaluru Urban District, Karnataka, India",12.9767936,77.590082
"Texas, United States",31.2638905,-98.5456116
شمال المحيط الأطلسي,40.0,-40.0
"Kipsitet Near Galaxy, Kericho-Kisumu Highway, Kochogo North sublocation, Nyachambla 'b', Soin ward, Sigowet/Soin, Kericho, Rift Valley, Kenya",-0.2283721,35.1563041
"City of New York, New York, United States",40.7127281,-74.0060152
"Fort-de-France, Martinique, France",14.6027962,-61.0676724
"Florence, Florence County, South Carolina, United States",34.1984435,-79.7671658
"Mimika, Papua Tengah, Western New Guinea, Indonesia, Puncak Jaya",-4.0786047,137.1586126
"Lakeland, Polk County, Florida, United States",28.0394654,-81.9498042
"Elvetham Heath, Fleet, Hart, Hampshire, England, United Kingdom",51.2910096,-0.8557576
"Rennes, Ille-et-Vilaine, Bretagne, France métropolitaine, France",48.1113387,-1.6800198
"Melsbroek, Steenokkerzeel, Halle-Vilvoorde, Vlaams-Brabant, Vlaanderen, België / Belgique / Belgien",50.9170725,4.4758811
"Tarapoto, San Martín, Perú",-6.4877198,-76.3598708
"Valletta, Xlokk, Malta",35.8989818,14.5136759
"Herrenalb, Bad Herrenalb, Verwaltungsgemeinschaft Bad Herrenalb, Landkreis Calw, Baden-Württemberg, 76332, Deutschland",48.7822431,8.447167860541505
"Khumbupasanglahmu, सोलुखुम्बु, कोशी प्रदेश, नेपाल, Himalayas",27.985688,86.9163367
"White's Farm, Matching, Epping Forest, Essex, England, United Kingdom",51.773206,0.19038733143637482
"Rodeway Inn Billings Logan Intl Airport Near St Vincent Hospital, North 27th Street, Billings, Yellowstone County, Montana, 59101, United States",45.7960035,-108.51698421049741
"Voksenkollen, Tomm Murstadbakken, Marka, Oslo, 0790, Norge",59.9800631,10.6652973
"City of New York, New York, United States",40.7127281,-74.0060152
"Birmingham, Jefferson County, Alabama, United States",33.5206824,-86.8024326
"长春市, 吉林省, 130000, 中国",43.8844201,125.3180998
"Marseilles, Marseilles-lès-Aubigny, Bourges, Cher, Centre-Val de Loire, France métropolitaine, 18320, France",47.0706778,3.0029271
"Cheshire, Naugatuck Valley Planning Region, Connecticut, 06410, United States",41.4989861,-72.900658
"Alberta, T0K 0M0, Canada, Crowsnest Pass (municipality)",49.6055374,-114.4971396
"Elk, Teton County, Wyoming, United States",43.7866062,-110.5474291
"Western Visayas, Philippines, Negros",10.0206654,122.97715983111425
"Charlottetown, City of Charlottetown, Queens County, Prince Edward Island, Canada",46.234953,-63.132935
"Live Oak Springs, San Diego County, California, 91905, United States",32.6906137,-116.334462
"Public Pick Up and Drop Off, Cambridge, Hobart, City of Clarence, Tasmania, 7170, Australia",-42.8388662,147.5061228
"Hobart Mills, Nevada County, California, United States",39.4004621,-120.183811
"Ir-Rabat, Għawdex, Malta",36.0428907,14.2398479
"Near Wall Bar, 咸宁学巷, 南院门街道, 张家村街道, 碑林区, 西安市, 陕西省, 710002, 中国",34.2536566,108.9386562
"Munson, Santa Rosa County, Florida, United States",30.8576858,-86.8730163
"Richmond, Virginia, United States",37.5385087,-77.43428
"Oslo, Norge",59.9133301,10.7389701
"Taboga, Distrito Taboga, Panamá, Taboga",8.7895216,-79.56073999876523
"Pau, Pyrénées-Atlantiques, Nouvelle-Aquitaine, France métropolitaine, 64000, France",43.2957547,-0.3685668
"Holyoke, Hampden County, Massachusetts, United States",42.2071434,-72.60765
"Reading, Berks County, Pennsylvania, United States",40.335345,-75.9279495
"济南市, 山东省, 中国",36.6507007,117.1140042
"Cuenca, Azuay, Ecuador",-2.8974072,-79.0041726
"Goodland, Sherman County, Kansas, 67735, United States",39.350833,-101.710172
"ပုသိမ်မြို့, ပုသိမ်, Pathein, ဧရာဝတီတိုင်းဒေသကြီး, 10011, မြန်မာ",16.783333,94.733333
"Oslo, Norge",59.9133301,10.7389701
"Lakehurst, Ocean County, New Jersey, United States",40.014561,-74.3112574
"Ajruport Internazzjonali ta' Malta, Vjal L-Avjazzjoni Civili, Ħal Luqa, Nofsinhar, BBG 1651, Malta",35.84739655,14.492295178989536
"Rouen, Seine-Maritime, Normandie, France métropolitaine, France",49.4404591,1.0939658
"Moline, Rock Island County, Illinois, 61265, United States",41.5058344,-90.5136642
"القاهرة, مصر",30.0443879,31.2357257
"Holtug, Stevns Kommune, Region Sjælland, 4660, Danmark",55.3410225,12.4062467
"Le Bourget, Le Raincy, Seine-Saint-Denis, Île-de-France, France métropolitaine, 93350, France",48.9351403,2.4258354
"Elko County, Nevada, United States",41.1958128,-115.3272864
"Banjul, Gambia",13.45535,-16.575646
"Nome, Unorganized Borough, Alaska, United States",64.5011111,-165.4063889
"Estevan, Division No. 1, Saskatchewan, Canada",49.1428076,-102.9910752
"Ville de Bruxelles - Stad Brussel, Brussel-Hoofdstad - Bruxelles-Capitale, Région de Bruxelles-Capitale - Brussels Hoofdstedelijk Gewest, België / Belgique / Belgien",50.8550018,4.3512333761166175
"Rio Doce, Região Geográfica Imediata de Ponte Nova, Região Geográfica Intermediária de Juiz de Fora, Minas Gerais, Região Sudeste, Brasil",-20.2447972,-42.8970432
"Stephenville, Newfoundland, Newfoundland and Labrador, Canada",48.5452022,-58.5871146
"Apeldoorn, Gelderland, Nederland",52.17957375,5.930077460807249
"Cheyenne, Laramie County, Wyoming, United States",41.139981,-104.820246
"Laramie, Albany County, Wyoming, United States",41.311367,-105.591101
"Saint-Léger-la-Montagne, Limoges, Haute-Vienne, Nouvelle-Aquitaine, France métropolitaine, 87340, France",46.0292761,1.4188089
"Около дома Станиславского, 9 с3, Вознесенский переулок, 54, Пресненский район, Москва, Центральный федеральный округ, 125375, Россия",55.758285650000005,37.60436886144644
"Cleveland, Cuyahoga County, Ohio, United States",41.4996574,-81.6936772
"Lebec, Kern County, California, 93243, United States",34.8416435,-118.8648189
"Amsterdam, Noord-Holland, Nederland",52.3730796,4.8924534
North Pacific Ocean,30.0,-170.0
"San José, Hospital, Cantón San José, Provincia San José, 10103, Costa Rica",9.9325427,-84.0795782
"El Palomar, Partido de Morón, Buenos Aires, Argentina",-34.6225227,-58.595568
"شهر مشهد, بخش مرکزی شهرستان مشهد, شهرستان مشهد, استان خراسان رضوی, ایران",36.2974945,59.6059232
"Hair Make Near, 東高野街道, 西石切町一丁目, 東大阪市, 大阪府, 579-8026, 日本",34.6871803,135.6453428
"Toledo, Lewis County, Washington, United States",46.4401007,-122.8467555
"Near Offices, Travessa Doutor Edésio da Silveira, Santa Rosa, Região Praias da Baía, Niterói, Região Geográfica Imediata do Rio de Janeiro, Região Metropolitana do Rio de Janeiro, Região Geográfica Intermediária do Rio de Janeiro, Rio de Janeiro, Região Sudeste, 24240-225, Brasil",-22.9026657,-43.09950120100339
"Days Inn San Diego Hotel Circle Near SeaWorld, 543, Hotel Circle South, Hillcrest, San Diego, San Diego County, California, 92108, United States",32.75988325,-117.16722825
"near dorm, 三门路, 五角场街道, 杨浦区, 上海市, 200434, 中国",31.3135175,121.4857295
"上海市, 中国",31.2312707,121.4700152
"Walshville, Montgomery County, Illinois, United States",39.069122,-89.61893098760513
"Michigan City, LaPorte County, Indiana, United States",41.7075394,-86.8950297
"São Paulo, Região Imediata de São Paulo, Região Metropolitana de São Paulo, Região Geográfica Intermediária de São Paulo, São Paulo, Região Sudeste, Brasil",-23.5506507,-46.6333824
"青岛市, 山东省, 中国",36.0638034,120.3781372
"Carmel, Deerfield Township, Cumberland County, New Jersey, 08352, United States",39.4342818,-75.1212927
"Puesto de Salud San Juan, Calle 1A, Puerto Araujo, Cimitarra, Santander, RAP Gran Santander, Colombia",6.5206641,-74.1007112
"Croydon Road, Botley Hill, Titsey, Tandridge, Surrey, England, CR6 9QH, United Kingdom",51.2814145,0.0033075
"重庆市, 渝中区, 重庆市, 400014, 中国",29.5656729,106.5479189
"香港島 Hong Kong Island, 香港 Hong Kong, 中国",22.2793278,114.1628131
"København, Københavns Kommune, Region Hovedstaden, 1357, Danmark",55.6867243,12.5700724
"Cool Lisbon Apartment Near the Beach, 3º-B, Rua João Inácio, Costa da Caparica, Almada, Setúbal, 2825-001, Portugal",38.6442353,-9.2375766
"Harrington, Kent County, Delaware, United States",38.9237244,-75.5777033
"Pedro Bernardo, Ávila, Castilla y León, España",40.2439312,-4.9108472
"Denver, Colorado, United States",39.7392364,-104.984862
"重庆市, 中国",30.05518,107.8748712
"Cordillera, Tonusco Arriba, Santa Fe de Antioquia, Occidente, Antioquia, RAP del Agua y la Montaña, Colombia",6.6192385,-75.9684928
"Résidence les Moucherolles, Les Maréchaux, Les Traverses, Corrençon-en-Vercors, Grenoble, Isère, Auvergne-Rhône-Alpes, France métropolitaine, 38250, France",45.0367303,5.5298791
"Building near road, Calle 106, Granizal, Comuna 1 - Popular, Perímetro Urbano Medellín, Medellín, Valle de Aburrá, Antioquia, RAP del Agua y la Montaña, 005004, Colombia",6.29437795,-75.54975026592507
"Negombo, Gampaha District, Western Province, 11500, ශ්‍රී ලංකාව இலங்கை",7.2094282,79.833117
"Columbus, Muscogee County, Georgia, United States",32.4610708,-84.9880449
"West Mall & Agricultural Road near First Nations Longhouse, Agricultural Road - q̓ʷeχt, University of British Columbia, Electoral Area A, Metro Vancouver Regional District, British Columbia, V6T 1Z2, Canada",49.2653583,-123.256274
"Cumberland County, New Jersey, United States, Delaware Bay",39.247595399999994,-75.30105997051399
"LaGuardia Airport, Bowery Bay Extension, Queens County, City of New York, New York, 11371, United States",40.7757145,-73.87336398511545
"厚木市, 神奈川県, 日本",35.464797,139.323536
"Port Deposit, Cecil County, Maryland, 21094, United States",39.6029087,-76.1132172
"Leesburg, Loudoun County, Virginia, United States",39.1154506,-77.5645607
"الميادين, ناحية الميادين, منطقة الميادين, محافظة دير الزور, سوريا",35.0166667,40.45
"Melbourne, Brevard County, Florida, United States",28.106471,-80.6371513
"Vichy, Allier, Auvergne-Rhône-Alpes, France métropolitaine, 03200, France",46.1239268,3.4203712
"Morón, Partido de Morón, Buenos Aires, Argentina",-34.6510527,-58.6217416
"Andes, Partido de Pinamar, Buenos Aires, 7169, Argentina",-37.144012,-56.9045572
North Pacific Ocean,30.0,-170.0
"City of New York, New York, United States",40.7127281,-74.0060152
"Malmö, Malmö kommun, Skåne län, Sverige",55.6052931,13.0001566
"București, România",44.4361414,26.1027202
"Hanksville, Wayne County, Utah, 84734, United States",38.3737755,-110.706401
"Sylva, Jackson County, North Carolina, United States",35.3737111,-83.2259803
"Tropic, Garfield County, Utah, United States, Bryce Canyon",37.618409,-112.1422341
"Unorganized Borough, Alaska, 99926, United States, Annette Island",55.1407297,-131.44598064067569
"Sri Sai Saraswathi Vidyanikethan, 8-2-231/A/501,502,503, Srinagar Colony Main Rd, Near Green Bawarchi, Sri Krishna Nagar, Krishna Nagar, Yousufguda, Hyderabad, Telangana 500045, Labour Adda Rd, Krishna Nagar, Ward 96 Yousufguda, Greater Hyderabad Municipal Corporation Central Zone, Hyderabad, Shaikpet mandal, Hyderabad District, Telangana, 500045, India",17.4308888,78.4281653
"Hands Off Advertising, Rizal Avenue, Cabagñan West, Ilawod Poblacion, Legazpi, Albay, Bicol Region, 4500, Philippines",13.1387124,123.7398436
"Gallup, McKinley County, New Mexico, 87301, United States",35.5283506,-108.743907
"Delaware Avenue, Newcastle, Weston County, Wyoming, 82715, United States",43.8508235,-104.1932166
"Ravello, Salerno, Campania, Italia",40.6496643,14.6122753
"Yakutat, Alaska, United States, Yakutat",59.572734499999996,-139.57831243878087
"Seattle, King County, Washington, United States",47.6038321,-122.330062
"Quality Suites Near Wolfchase Galleria, 8166, Varnavas Drive, Memphis, Shelby County, West Tennessee, Tennessee, 38016, United States",35.1888448,-89.79089066807877
"Красноярск, городской округ Красноярск, Красноярский край, Сибирский федеральный округ, 660000, Россия",56.0090968,92.8725147
"昆明市, 云南省, 中国",25.0363006,102.7086139
"Leon, León, Guanajuato, 37547, México",21.0792557,-101.5897695
"Paris, Île-de-France, France métropolitaine, France",48.8534951,2.3483915
"Ruislip, Greater London, England, HA4 7TJ, United Kingdom",51.5775626,-0.4278453
"Oxon Hill, Prince George's County, Maryland, 20745, United States",38.8035961,-76.9896573
"Fort Caroline, Jacksonville, Duval County, Florida, United States, Dame Point-Fulton Cut Off",30.3883202,-81.5302342
"Collesalvetti, Livorno, Toscana, Italia",43.588912,10.476264
"Davao City, Agdao District, Davao Region, Philippines",7.0648306,125.6080623
"Columbus, Franklin County, Ohio, United States",39.9622601,-83.0007065
"London Heathrow Airport, Enfield Road Roundabout, London Borough of Hillingdon, London, Greater London, England, TW6 2RN, United Kingdom",51.46773895,-0.4587800741571181
"Chicago, Cook County, Illinois, United States",41.8755616,-87.6244212
"Unorganized Borough, Alaska, United States, Mount Sanford",62.213889,-144.128889
"Villa Pinzón, Comuna 3 - San Simón, Perímetro Urbano Ibagué, Ibagué, Centro, Tolima, RAP (Especial) Central, 730002, Colombia",4.4466742,-75.2159368
"Venaco, Corte, Haute-Corse, Corse, France métropolitaine, 20231, France, Monte Cardo",42.2302979,9.1202731
"Bench near Havelchaussee, Lieper Bucht, Grunewald, Charlottenburg-Wilmersdorf, Berlin, 14193, Deutschland",52.4713975,13.1961032
"Kano, Nigeria",11.8948389,8.5364136
"Éire / Ireland, Shannon",53.1349614,-8.1611027
"High Commission of Papua New Guinea, 39-41, Forster Crescent, Yarralumla, Canberra, District of Canberra Central, Australian Capital Territory, 2600, Australia",-35.3034277,149.12394248268777
"Экспозиция военной техники, улица Карла Маркса, Правобережный округ, Правобережный административный округ, Иркутск, городской округ Иркутск, Иркутская область, Сибирский федеральный округ, 664026, Россия",52.28979145,104.29383235
"Vrede, Phumelela Local Municipality, Thabo Mofutsanyana District Municipality, Free State, 9835, South Africa",-27.4264699,29.1637064
"Columbus, Franklin County, Ohio, United States",39.9622601,-83.0007065
"Хабаровский край, Дальневосточный федеральный округ, Россия",51.6312684,136.121524
"Albacete, Castilla-La Mancha, España",38.9950921,-1.8559154
Ellan Vannin / Isle of Man,54.1936805,-4.5591148
"Mount Carmel, Northumberland County, Pennsylvania, 17851, United States",40.7968393,-76.4131097
"Aeropuerto Internacional de Maiquetía Simón Bolívar, Av. Aeropuerto Auxiliar, Sotavento II, Parroquia Urimare, Municipio Vargas, La Guaira, 1162, Venezuela",10.60316215,-66.99667670060362
"Keerbergen, Leuven, Vlaams-Brabant, Vlaanderen, 3140, België / Belgique / Belgien",51.0037524,4.6290719
"Northolt, Mandeville Road, London Borough of Ealing, London, Greater London, England, UB5 4AA, United Kingdom",51.5484582,-0.3695247
"Belém, Região Geográfica Imediata de Belém, Região Geográfica Intermediária de Belém, Pará, Região Norte, Brasil",-1.45056,-48.4682453
"Cap-des-Rosiers, Boulevard de Cap-des-Rosiers, Cap-des-Rosiers, Gaspé, La Côte-de-Gaspé, Gaspésie–Îles-de-la-Madeleine, Québec, G4X 6G7, Canada",48.8562821,-64.2010241
"Buenos Aires, Comuna 6, Ciudad Autónoma de Buenos Aires, Argentina",-34.6075682,-58.4370894
"青岛市, 山东省, 中国",36.0638034,120.3781372
"کراچی ڈویژن, سندھ, پاکستان",24.8546842,67.0207055
"Marlborough, New Zealand / Aotearoa, Te Whanganui / Port Underwood",-41.3209311,174.1356457795796
"La Guaira, Venezuela",10.6000384,-66.9296405
"Жетісу облысы, Қазақстан, Балқаш көлі",46.55825725,77.71087007268744
"Glasgow Prestwick Airport, Prestwick Bypass, Prestwick, South Ayrshire, Alba / Scotland, KA9 2PL, United Kingdom",55.50230535,-4.577596602973978
"Ruapehu District, Manawatū-Whanganui, New Zealand / Aotearoa, Mount Ruapehu",-39.2812032,175.5642887
"Ernocroft, Glossop Road / near Lower Stirrup Farm, Boarfold Lane, Meadowbank Farm, Stirrup Benches, Stockport, Greater Manchester, England, SK6 5RX, United Kingdom",53.4251794,-2.0258994
"Unorganized Borough, Alaska, United States, Cape Spencer",58.198386150000005,-136.6402128445797
"Shire of Macedon Ranges, Victoria, 3441, Australia, Mount Macedon",-37.3875384,144.5757825
"Liverpool, Liverpool City Region, England, United Kingdom",53.4071991,-2.99168
"وہاڑی, ملتان ڈویژن, پنجاب, 61100, پاکستان",30.0,72.333333
"Milano, Lombardia, Italia",45.4641943,9.1896346
"臺北市, 臺灣",25.0375198,121.5636796
"西貢區 Sai Kung District, 新界 New Territories, 香港 Hong Kong, 中国, 火石洲 Basalt Island",22.3139519,114.36521487604794
"Seattle, King County, Washington, United States",47.6038321,-122.330062
"Brandywine, Prince George's County, Maryland, 20613, United States",38.693454849999995,-76.88430810208973
"Ras El Tin, شارع ميدان ابراهيم الاول, الإسكندرية, 21633, مصر",31.2025145,29.8739984
"Sri Sai Saraswathi Vidyanikethan, 8-2-231/A/501,502,503, Srinagar Colony Main Rd, Near Green Bawarchi, Sri Krishna Nagar, Krishna Nagar, Yousufguda, Hyderabad, Telangana 500045, Labour Adda Rd, Krishna Nagar, Ward 96 Yousufguda, Greater Hyderabad Municipal Corporation Central Zone, Hyderabad, Shaikpet mandal, Hyderabad District, Telangana, 500045, India",17.4308888,78.4281653
"Homer, Kenai Peninsula, Alaska, United States",59.6440876,-151.5401477
"Port Washington, Town of North Hempstead, Nassau County, New York, United States",40.8257072,-73.6958069
"Newfoundland, Newfoundland and Labrador, Canada, Trinity Bay",48.049379599999995,-53.40589453152174
"Colombia, Bahía de Buenaventura",3.805,-77.2
"Hop on Hop Off, Langelinie, Østerbro, København, Københavns Kommune, Region Hovedstaden, 1259, Danmark",55.6934984,12.5985701
"Coolangatta, Gold Coast City, Queensland, Australia",-28.170386,153.53044811991248
"Berlin, Deutschland",52.5170365,13.3888599
"Waikanae - Ngaio Road at Main Road (near 1), Ngaio Road, Waikanae, Kāpiti Coast District, Wellington, 5036, New Zealand / Aotearoa",-40.8759634,175.065612
"Torino, Piemonte, 10099, Italia, Superga",45.0805149,7.7670995
"San Juan, Puerto Rico, United States",18.465299,-66.116666
"Bar Chimera - Spin off, Via Michele Natale, Caserta, Aldifreda, Caserta, Campania, 81100, Italia",41.0834917,14.3328059
"Windsor Road near Guildford Street stop 13, Windsor Road, Red Hill, Kelvin Grove, Greater Brisbane, Queensland, 4059, Australia",-27.4455579,153.0071684
"Chatsworth, Los Angeles, Los Angeles County, California, 91311, United States",34.2595715,-118.6023247
"Himalayan Organics, Plot No. EC 77, Scheme No. 94, Near Bombay Hospital Square, Ring Road, Indore, Juni Indore Tahsil, Indore District, Madhya Pradesh, 452010, India",22.751451099999997,75.9042799
"Seattle, King County, Washington, United States",47.6038321,-122.330062
"Марга, Иргейское сельское поселение, Нижнеудинский район, Иркутская область, Сибирский федеральный округ, Россия",54.599422,99.844017
"Chesterfield Township, Burlington County, New Jersey, 08515, United States",40.1153966,-74.6412727
"Jaquirana, Região Geográfica Imediata de Vacaria, Região Geográfica Intermediária de Caxias do Sul, Rio Grande do Sul, Região Sul, Brasil",-28.8836757,-50.3580098
"Salasaca, Pelileo, Tungurahua, Ecuador",-1.31756525,-78.5766164791466
"صلالة, محافظة ظفار, 999, عمان",17.0174945,54.1010923
"Failsworth, Oldham Road / near Broadway, Oldham Road, Failsworth, Oldham, Greater Manchester, England, M35 0JD, United Kingdom",53.505571,-2.171537
"Kinshasa, Aketi, Kinshasa, République démocratique du Congo",-4.3217055,15.3125974
"Popocatepetl, Treinta de Mayo, Nogales, Veracruz, 94740, México",18.8099007,-97.2133776
"Cheyenne, Laramie County, Wyoming, United States",41.139981,-104.820246
"Açores, Portugal, Ilha de São Miguel",37.80855645,-25.473137391245295
"Arlington County, Virginia, United States",38.8769326,-77.0893094
"Akron, Summit County, Ohio, United States",41.083064,-81.518485
"Kolkata, Kolkata District, West Bengal, 700073, India",22.5726459,88.3638953
"Dallas, Dallas County, Texas, United States",32.7762719,-96.7968559
"Chaleyssin, Lotissement de La Sévenne, Saint-Just-Chaleyssin, Vienne, Isère, Auvergne-Rhône-Alpes, France métropolitaine, 38540, France",45.587131,4.9952268
"Vallejo, Solano County, California, United States",38.1040864,-122.2566367
"Washington, District of Columbia, United States",38.8950368,-77.0365427
"Jungshahi, تعلقہ ٹھٹہ, ضلع ٹھٹہ, سندھ, پاکستان",24.85710585,67.7745938462678
"Orizaba, Veracruz, 94300, México",18.8497366,-97.1060062
"Aulnay-sous-Bois, Le Raincy, Seine-Saint-Denis, Île-de-France, France métropolitaine, 93600, France",48.934231,2.499789
"Екатеринбург, городской округ Екатеринбург, Свердловская область, Уральский федеральный округ, Россия",56.839104,60.60825
"Albacete, Castilla-La Mancha, España",38.9950921,-1.8559154
"Iloilo, Western Visayas, Philippines",10.9522168,122.5799456
North Sea / Nordsee / Noordzee / Nordsøen / Nordsjøen / Mer du Nord,56.0026997,2.8144672799047834
"Minneapolis, Hennepin County, Minnesota, United States",44.9772995,-93.2654692
"Thành phố Hồ Chí Minh, Việt Nam",10.7763897,106.7011391
"Ankara, Çankaya, Ankara, İç Anadolu Bölgesi, 06420, Türkiye",39.9207759,32.8540497
"High Street (near), Bedford Road East, Yardley Hastings, West Northamptonshire, England, NN7 1AT, United Kingdom",52.2007895,-0.7350026
"Santa Ana, Magdalena, RAP Caribe, Colombia",9.3229035,-74.5696573
"Chimborazo, Ecuador",-1.9262626,-78.7297799
"Myrtle Beach, Horry County, South Carolina, 29577, United States",33.6956461,-78.8900409
"Teterboro, Bergen County, New Jersey, 07608, United States",40.857483,-74.06003621298285
"Kick Off Academy, شارع 21, سار, المحافظة الشمالية, 533, البحرين",26.1961051,50.4915963
"المحافظة الجنوبية, البحرين, جزيرة البحرين",26.0280409,50.55316820508136
"المحافظة الجنوبية, البحرين, جزيرة البحرين",26.0280409,50.55316820508136
"York, Shire Of York, Western Australia, 6302, Australia",-31.8889034,116.7691483
"부산, 대한민국",35.1799528,129.0752365
"Casablanca ⵜⵉⴳⵎⵉ ⵜⵓⵎⵍⵉⵍⵜ الدار البيضاء, préfecture d'arrondissements de Casablanca-Anfa عمالة مقاطعات الدار البيضاء أنفا, Pachalik de Casablanca, Préfecture de Casablanca عمالة الدار البيضاء, Casablanca-Settat ⵜⵉⴳⵎⵉ ⵜⵓⵎⵍⵉⵍⵜ-ⵙⵟⵟⴰⵜ الدار البيضاء-سطات, Maroc ⵍⵎⵖⵔⵉⴱ المغرب",33.5945144,-7.6200284
"Pedro's Myrtle Beach Shop, US 301;US 501, South of the Border, Dillon County, South Carolina, 29547, United States",34.49873475,-79.30793370791618
"Rua Porte Alegre, Águas Lindas de Goiás, Região Geográfica Imediata de Águas Lindas de Goiás, Região Integrada de Desenvolvimento do Distrito Federal e Entorno, Região Geográfica Intermediária de Luziânia-Águas Lindas de Goiás, Goiás, Região Centro-Oeste, 72910-733, Brasil",-15.7727359,-48.2441254
"Карагандинская улица, Грабарский, Авиастроительный район, Казань, городской округ Казань, Татарстан, Приволжский федеральный округ, 420037, Россия",55.8602542,49.0726116
"Comfort Inn Near Old Town Pasadena In Eagle Rock, 2300, Colorado Boulevard, Eagle Rock, Los Angeles, Los Angeles County, California, 90041, United States",34.139185499999996,-118.21715788196887
"City of Utica, Oneida County, New York, United States",43.1009031,-75.2326641
"شهر تهران, بخش مرکزی شهرستان تهران, شهرستان تهران, استان تهران, ایران",35.6892523,51.3896004
"Kuwajleen, Ṃajeḷ",9.1257934,167.5740472
"Karlstad, Karlstads kommun, Värmlands län, 652 24, Sverige",59.3809146,13.5027631
"Casablanca ⵜⵉⴳⵎⵉ ⵜⵓⵎⵍⵉⵍⵜ الدار البيضاء, préfecture d'arrondissements de Casablanca-Anfa عمالة مقاطعات الدار البيضاء أنفا, Pachalik de Casablanca, Préfecture de Casablanca عمالة الدار البيضاء, Casablanca-Settat ⵜⵉⴳⵎⵉ ⵜⵓⵎⵍⵉⵍⵜ-ⵙⵟⵟⴰⵜ الدار البيضاء-سطات, Maroc ⵍⵎⵖⵔⵉⴱ المغرب",33.5945144,-7.6200284
"Greater London, England, United Kingdom, London",51.4893335,-0.14405508452768728
"London Heathrow Airport, Enfield Road Roundabout, London Borough of Hillingdon, London, Greater London, England, TW6 2RN, United Kingdom",51.46773895,-0.4587800741571181
"Cambrai, Nord, Hauts-de-France, France métropolitaine, 59400, France, Mont Blanc",50.202202,3.2304558
"Surabaya, Jawa Timur, Jawa, Indonesia",-7.2459717,112.7378266
"Cusco, Distrito de Cusco, Cusco, 08001, Perú",-13.5170887,-71.9785356
"Londrina, Região Geográfica Imediata de Londrina, Região Geográfica Intermediária de Londrina, Paraná, Região Sul, Brasil",-23.3112878,-51.1595023
"Ribeirão, Região Geográfica Imediata de Escada-Ribeirão, Região Geográfica Intermediária do Recife, Pernambuco, Região Nordeste, Brasil",-8.5066761,-35.3747339
"Valera, Parroquia Mercedes Díaz, Municipio Valera, Trujillo, 3101, Venezuela",9.3148173,-70.6081655
"Penticton, Regional District of Okanagan-Similkameen, British Columbia, Canada",49.5003268,-119.593249
"La Parrilla Argentina, Avenida Alcalde Rafael Cordero Santiago, Plaza del Caribe, Playa, Ponce, Puerto Rico, 00734, United States",17.9892508,-66.6113421
"Ixopo, Ubuhlebezwe Local Municipality, Sisonke District Municipality, KwaZulu-Natal, South Africa",-30.151389,30.061111
"Philadelphia, Pennsylvania, United States",39.9527237,-75.1635262
"Yalí, Nordeste, Antioquia, RAP del Agua y la Montaña, 052830, Colombia",6.71822975,-74.75288660542554
"Sioux City, Woodbury County, Iowa, United States",42.4966815,-96.4058782
"香港島 Hong Kong Island, 香港 Hong Kong, 中国, 畢拿山 Mount Butler",22.2676649,114.2111196
"Corozal, Sabanas, Sucre, RAP Caribe, Colombia",9.2045175,-75.27619980073368
"Иркутская область, Сибирский федеральный округ, Россия",56.6370122,104.719221
"Municipio de Río Grande, Departamento Río Grande, Tierra del Fuego, 9420, Argentina",-53.7856766,-67.7016369
"Manchester, Greater Manchester, England, United Kingdom",53.4794892,-2.2451148
"Bogotá, Bogotá Distrito Capital - Municipio, RAP (Especial) Central, Colombia",4.6529539,-74.0835643
"Key West, Monroe County, Florida, United States",24.5548262,-81.8020722
"Fort Wayne, Allen County, Indiana, United States",41.0799898,-85.1386015
"Bordeaux, Gironde, Nouvelle-Aquitaine, France métropolitaine, France",44.841225,-0.5800364
"Rancharia, Região Imediata de Presidente Prudente, Região Geográfica Intermediária de Presidente Prudente, São Paulo, Região Sudeste, 19600-000, Brasil",-22.2294981,-50.8922333
"New Boston, Bowie County, Texas, 75570, United States",33.4598415,-94.4154787
"Rio de Janeiro, Região Geográfica Imediata do Rio de Janeiro, Região Metropolitana do Rio de Janeiro, Região Geográfica Intermediária do Rio de Janeiro, Rio de Janeiro, Região Sudeste, Brasil",-22.9110137,-43.2093727
"Perímetro Urbano Medellín, Medellín, Valle de Aburrá, Antioquia, RAP del Agua y la Montaña, Colombia",6.2443382,-75.573553
"Sakhi One Stop Centre, Mazgaon,Near Heritage Hotel, NH715, Lokra, Porua Chariali, Tezpur, Sonitpur District, Assam, 784001, India",26.6492008,92.7852521
"Aracaju, Região Geográfica Imediata de Aracaju, Região Geográfica Intermediária de Aracaju, Sergipe, Região Nordeste, Brasil",-10.9162061,-37.0774655
"Sitka, Alaska, United States, Near Point",57.3913889,-135.5961111
"Gao, Cercle de Gao, Gao, Mali",16.2788129,-0.0412392
"Cochabamba, Villa Coronilla, Cochabamba, Cercado, Cochabamba, Bolivia",-17.401245799999998,-66.16756808852
"City of Clarence, Tasmania, 7170, Australia, Barilla Bay",-42.8212941,147.4830623
"Moisville, Évreux, Eure, Normandie, France métropolitaine, 27320, France",48.8395577,1.1652725
"Ubatuba, Região Imediata de Caraguatatuba-Ubatuba-São Sebastião, Região Metropolitana do Vale do Paraíba e Litoral Norte, Região Geográfica Intermediária de São José dos Campos, São Paulo, Região Sudeste, Brasil",-23.433162,-45.083415
"Decoto, Union City, Alameda County, California, 94587, United States",37.6025883,-122.0214108
"São Paulo, Região Imediata de São Paulo, Região Metropolitana de São Paulo, Região Geográfica Intermediária de São Paulo, São Paulo, Região Sudeste, Brasil",-23.5506507,-46.6333824
"Bengaluru, Bangalore North, Bengaluru Urban District, Karnataka, India",12.9767936,77.590082
"La Paz, Pedro Domingo Murillo, La Paz, Bolivia",-16.4955455,-68.1336229
"Cerro Blanco, Terrenos de la Ex-hacienda ""San Miguel del Rincón"", Papantla, Veracruz, 93544, México",20.261111,-97.166667
"East Griqualand & Usher Memorial Hospital, The Avenue, Greater Kokstad Ward 3, Kokstad, Greater Kokstad Local Municipality, Sisonke District Municipality, KwaZulu-Natal, 4700, South Africa",-30.54668625,29.41468317941224
"North Atlantic, Conception Bay Highway, Manuels, Talcville, Conception Bay South, Newfoundland, Newfoundland and Labrador, A1W 1N2, Canada",47.51863195,-52.9569987150268
"Area C (Arrowsmith-Benson), Regional District of Nanaimo, British Columbia, Canada, Mount Benson",49.1494522,-124.0498441
"Puy-de-Dôme, Auvergne-Rhône-Alpes, France métropolitaine, France",45.7715343,3.0839934206717934
"القاهرة, مصر",30.0443879,31.2357257
"Kolkata, Kolkata District, West Bengal, 700073, India",22.5726459,88.3638953
"Zürich, Bezirk Zürich, Zürich, Schweiz/Suisse/Svizzera/Svizra",47.3744489,8.5410422
"San Luis Acatlán, Guerrero, México",16.870085449999998,-98.72220741144672
"Denver, Colorado, United States",39.7392364,-104.984862
"Elizabeth, Union County, New Jersey, United States",40.6639916,-74.2107006
"شهر تهران, بخش مرکزی شهرستان تهران, شهرستان تهران, استان تهران, ایران",35.6892523,51.3896004
"Kolkata, Kolkata District, West Bengal, 700073, India",22.5726459,88.3638953
"Andapa, Sava, Province d'Antsiranana, 205, Madagasikara / Madagascar",-14.6622706,49.6517827
"Elizabeth, Union County, New Jersey, United States",40.6639916,-74.2107006
"Kikwit, Kwilu, République démocratique du Congo",-5.0610453,18.808744282510744
"金子, 桂通り, 大字南峯, 入間市, 埼玉県, 358-0046, 日本",35.8110878,139.3286556
"Elizabeth, Union County, New Jersey, United States",40.6639916,-74.2107006
"Nagpur Urban Taluka, Nagpur, Maharashtra, India",21.1498134,79.0820556
"Building near Yaounde-Ngaoundere, Dir, Mbéré, Adamaoua, Cameroun",6.27946975,13.345215681938416
"Uberlândia, Região Geográfica Imediata de Uberlândia, Região Geográfica Intermediária de Uberlândia, Minas Gerais, Região Sudeste, Brasil",-18.9188041,-48.2767837
"Nice, Alpes-Maritimes, Provence-Alpes-Côte d'Azur, France métropolitaine, France",43.7009358,7.2683912
"Cebu City, Central Visayas, Philippines",10.2931062,123.9020773
"Frankfurt am Main, Hessen, Deutschland",50.1106444,8.6820917
"Москва, Центральный федеральный округ, Россия",55.625578,37.6063916
"Baguio, Cordillera Administrative Region, 2600, Philippines",16.4119955,120.593371
"City of New York, New York, United States",40.7127281,-74.0060152
"東京都, 日本, Михара",34.7269449,139.3945435
"Agartala, Mohanpur, West Tripura District, Tripura, 799001, India",23.8312377,91.2823821
"Delhi, India",28.6273928,77.1716954
"Ipoh, Kinta, Perak, 30450, Malaysia",4.5986817,101.0900236
"São Paulo, Região Imediata de São Paulo, Região Metropolitana de São Paulo, Região Geográfica Intermediária de São Paulo, São Paulo, Região Sudeste, Brasil",-23.5506507,-46.6333824
Morze Bałtyckie  - Baltijos jūra - Baltijas jūra -  Läänemeri - Itämeri - Östersjön - Østersøen - Ostsee -Балтийское море,56.0,18.0
"Tijuca Off Shopping, Rua Barão de Mesquita, Tijuca, Zona Norte do Rio de Janeiro, Rio de Janeiro, Região Geográfica Imediata do Rio de Janeiro, Região Metropolitana do Rio de Janeiro, Região Geográfica Intermediária do Rio de Janeiro, Rio de Janeiro, Região Sudeste, 20511-120, Brasil",-22.9232017,-43.23534575054528
"Rua Maristela Palmeira Pacheco, Inhumas, Região Geográfica Imediata de Inhumas - Itaberaí - Anicuns, Região Geográfica Intermediária de Goiânia, Goiás, Região Centro-Oeste, 75400-000, Brasil",-16.3709459,-49.4772806
"Mini Autodromo (Modellismo On-Road e Off-Road), Contrada Calatubo, Alcamo, Trapani, Sicilia, 91011, Italia",38.01165325,12.981390798470088
"كوستي, ولاية النيل الأبيض, السودان",12.6457036,32.2338812
"Guna Yala, Panamá",9.187597499999999,-77.87137226376693
"وادي حلفا, الولاية الشمالية, السودان",21.8005,31.350737
"Travelodge by Wyndham Flagstaff Near I-40, 2918, East Route 66, Lower Greenlaw Estates, East Flagstaff, Flagstaff, Coconino County, Arizona, 86004, United States",35.210382550000006,-111.60668649717636
"Hadjer-Lamis حجر لميس, Tchad تشاد, Lac Tchad بحيرة تشاد",13.020858050000001,14.580180631435823
"1727. 서울도봉초등학교인근, 무수천 자전거길, 도봉동, 도봉1동, 도봉구, 서울, 01304, 대한민국",37.6786993,127.0406006
"Anchorage, Alaska, United States, Near Point",61.154512,-149.65229
"Carbon County, Montana, United States, Shepard Mountain",45.1779987,-109.6893387
"Unorganized Borough, Alaska, United States, Mount Gannett",61.242416,-148.1972325
"Moses Lake, Grant County, Washington, 98837, United States",47.1301417,-119.278077
"Off-White, 127, Northeast 41st Street, Buena Vista, Miami, Miami-Dade County, Florida, 33137, United States",25.8143476,-80.1929369
"دمشق, منطقة دمشق القديمة, Damascus, محافظة دمشق, سوريا",33.5130695,36.3095814
"شهر تهران, بخش مرکزی شهرستان تهران, شهرستان تهران, استان تهران, ایران",35.6892523,51.3896004
"Belfast, County Antrim, Northern Ireland / Tuaisceart Éireann, BT1 5GS, United Kingdom",54.596391,-5.9301829
"Issaquah, King County, Washington, United States",47.5348778,-122.0432974
"Fish Haven, Bear Lake County, Idaho, 83287, United States",42.0368759,-111.3963177
"Sìnnia/Sinnai, Casteddu/Cagliari, Sardigna/Sardegna, 09048, Italia",39.3042403,9.2035381
"Isle Of Demon off Trail Route, Newfoundland, Newfoundland and Labrador, Canada",51.6389858,-55.4289316
"Tỉnh Lai Châu, Việt Nam",22.2921668,103.1798662
"Bordeaux, Gironde, Nouvelle-Aquitaine, France métropolitaine, France",44.841225,-0.5800364
"القاهرة, مصر",30.0443879,31.2357257
"Mobile Cut-Off Road, Washington County, Alabama, United States",31.50392,-88.039788
"کراچی ڈویژن, سندھ, پاکستان",24.8546842,67.0207055
"Windsor Locks, Capitol Planning Region, Connecticut, 06096, United States",41.9281305,-72.643631
"Newfoundland, Newfoundland and Labrador, Canada, Random Island",48.1446647,-53.73042469301693
"Stephenville, Newfoundland, Newfoundland and Labrador, Canada",48.5452022,-58.5871146
"Alvarado, Union City, Alameda County, California, 94587, United States",37.5964872,-122.0789268
"Itapebi, Região Geográfica Imediata de Eunápolis - Porto Seguro, Região Geográfica Intermediária de Ilhéus-Itabuna, Bahia, Região Nordeste, 45855-000, Brasil",-15.9693064,-39.5316476
"hot off the press, Grenada Crescent, New Kingston, Kingston, Saint Andrew, Surrey County, Jamaica",18.0069462,-76.7891799
"Near Tunnel, Assam Tube Factory, Amingaon, Guwahati, North Guwahati (Pt), Kamrup Metropolitan District, Assam, 781031, India",26.18177245,91.66896722126359
"Selleck, King County, Washington, United States",47.3756578,-121.8684444
"Trung tâm Mục vụ Giáo xứ Chính toà, Quận Hoàn Kiếm, Thành phố Hà Nội, Việt Nam",21.028266350000003,105.84856371704716
"San Mateo County, California, United States, San Francisco Bay",37.71402905,-122.30779415179862
"New Delhi District, Delhi, India",28.6138954,77.2090057
"Prince Rupert, North Coast Regional District, British Columbia, Canada",54.3126572,-130.32549
"Saint Louis, Missouri, United States",38.6280278,-90.1910154
"Amsterdam, Noord-Holland, Nederland",52.3730796,4.8924534
"near the river, ზუგდიდი-ჯვარი-მესტია-ლასდილი, ვიჩნაში, მესტიის მუნიციპალიტეტი, სამეგრელო-ზემო სვანეთი, 3206, საქართველო",42.9474078,42.8914245
"São Paulo, Região Imediata de São Paulo, Região Metropolitana de São Paulo, Região Geográfica Intermediária de São Paulo, São Paulo, Região Sudeste, Brasil",-23.5506507,-46.6333824
"الشارقة, الإمارات العربية المتحدة",25.2311534,54.21900831355923
"Days Inn San Diego Hotel Circle Near SeaWorld, 543, Hotel Circle South, Hillcrest, San Diego, San Diego County, California, 92108, United States",32.75988325,-117.16722825
"Vail, Thurston County, Washington, United States",46.8451007,-122.6562348
"San Andrés, Lempira, Honduras",14.2217534,-88.5507877
"Chablekal, Mérida, Yucatán, 97500, México",21.095685,-89.577196
"City of Albany, Albany County, New York, United States",42.6511674,-73.754968
"Ankara, Çankaya, Ankara, İç Anadolu Bölgesi, 06420, Türkiye",39.9207759,32.8540497
"Louisville, Jefferson County, Kentucky, United States",38.2542376,-85.759407
"Frankfurt am Main, Hessen, Deutschland",50.1106444,8.6820917
"Tỉnh Lai Châu, Việt Nam",22.2921668,103.1798662
"City of New York, New York, United States",40.7127281,-74.0060152
"Tarabuco, Municipio Tarabuco, Provincia Yamparaez, Chuquisaca, Bolivia",-19.1824227,-64.9150438
"Clyde Off Site Centre, Gareloch Road, Rhu, Argyll and Bute, Alba / Scotland, G84 8LA, United Kingdom",56.0127926,-4.767447635790857
"Nagpur Urban Taluka, Nagpur, Maharashtra, India",21.1498134,79.0820556
"Tecpán, Chimaltenango, Guatemala",14.7612884,-90.9920691
"Chalan Pago-Ordot Municipality, Guam, United States, Mariana Islands",13.450125700000001,144.75755102972062
"Zürich, Bezirk Zürich, Zürich, Schweiz/Suisse/Svizzera/Svizra",47.3744489,8.5410422
"هرات, ولایت هرات, 3005, افغانستان",34.3508273,62.2164003
"Lapseki, Çanakkale, Marmara Bölgesi, Türkiye",40.3443674,26.6845975
"Perímetro Urbano Manizales, Manizales, Centrosur, Caldas, RAP del Agua y la Montaña, Colombia",5.0668907,-75.5066661
"Praha, Česko, Praha",50.0596288,14.446459273258009
"Signal Hill, Los Angeles County, California, United States",33.804826,-118.168259
"Roma, Roma Capitale, Lazio, Italia",41.8933203,12.4829321
"Kansas City, Jackson County, Missouri, United States",39.100105,-94.5781416
"ハードオフ, つくしヶ丘本通線（3・3・3本通線）, 駒場北六丁目, 網走市, オホーツク総合振興局, 北海道, 093-0033, 日本",44.0011828,144.285091
"Susitna Valley Junior/Senior High School, 42728, George Parks Highway, Talkeetna, Matanuska-Susitna, Alaska, 99676, United States",62.13190395,-150.0465516757023
"New Delhi District, Delhi, India",28.6138954,77.2090057
"Wright, Campbell County, Wyoming, 82732, United States",43.751281,-105.484825
"Old Kallang Airport Terminal Building, 9, Kallang Airport Way, Kallang, Singapore, Southeast, 397750, Singapore",1.3074089500000001,103.87358623307097
"Off Hatfields Road, Koumala, Mackay Regional, Queensland, Australia",-21.642737,149.2084967
"Monterrey, Nuevo León, México",25.6802019,-100.315258
"Thành phố Hà Nội, Việt Nam",21.0358135,105.84035
"Moose Jaw, Division No. 7, Saskatchewan, Canada",50.401515,-105.542908
"Batuco, Salamanca, Provincia de Choapa, Región de Coquimbo, Chile",-31.9402225,-70.6094581
"State Bank of India, Kankurgachi, More, near Sbi Branch, Bagmari, Bagmari Lane, BRS-10, Maniktala, Kolkata, Kolkata District, West Bengal, 700054, India",22.580492999999997,88.38951904999999
"Paraparaumu, Kāpiti Coast District, Wellington, 5032, New Zealand / Aotearoa",-40.9144636,175.0061963
"São Paulo, Região Imediata de São Paulo, Região Metropolitana de São Paulo, Região Geográfica Intermediária de São Paulo, São Paulo, Região Sudeste, Brasil",-23.5506507,-46.6333824
"Thành phố Đà Nẵng, Việt Nam",16.068,108.212
"Harbour Mini Market And Off License, Lower Sandgate Road, Foord, Folkestone, Folkestone and Hythe, Kent, England, CT20 1QJ, United Kingdom",51.0791366,1.1841744
"Açores, Portugal, Ilha Terceira",38.72116535,-27.217637988768217
Việt Nam,15.9266657,107.9650855
"Сахалинская область, Дальневосточный федеральный округ, Россия",49.7219665,143.448533
"Foynes, Shanagolden, The Municipal District of Adare — Rathkeale, County Limerick, Munster, V94 V324, Éire / Ireland",52.6111406,-9.1109507
"Tijuca Off Shopping, Rua Barão de Mesquita, Tijuca, Zona Norte do Rio de Janeiro, Rio de Janeiro, Região Geográfica Imediata do Rio de Janeiro, Região Metropolitana do Rio de Janeiro, Região Geográfica Intermediária do Rio de Janeiro, Rio de Janeiro, Região Sudeste, 20511-120, Brasil",-22.9232017,-43.23534575054528
"القاهرة, مصر",30.0443879,31.2357257
"Новосибирск, Новосибирская область, Сибирский федеральный округ, 630000, Россия",54.96781445,82.95159894278376
"Mangalore, Shire of Strathbogie, Victoria, 3663, Australia",-36.924626,145.17083142450304
"Berlin, Coös County, New Hampshire, 03570, United States",44.4688795,-71.1836547
"Bratislava, Bratislavský kraj, Slovensko",48.1516988,17.1093063
"City of New York, New York, United States",40.7127281,-74.0060152
"Pittsburgh, Allegheny County, Pennsylvania, United States",40.4416941,-79.9900861
"Prestwick, South Ayrshire, Alba / Scotland, KA9 1PA, United Kingdom",55.4982802,-4.6113017
"Иркутская область, Сибирский федеральный округ, Россия",56.6370122,104.719221
"Anchorage, Alaska, United States, Near Point",61.154512,-149.65229
"London, Ontario, N6A 3N7, Canada",42.9832406,-81.243372
"Des Moines, Polk County, Iowa, United States",41.5910323,-93.6046655
"Nagpur Urban Taluka, Nagpur, Maharashtra, India",21.1498134,79.0820556
"Albuquerque, Bernalillo County, New Mexico, United States",35.0841034,-106.650985
"Harare, Harare Province, Zimbabwe",-17.831773,31.045686
"Formosa, Argentina",-24.5955306,-60.4289718
"Vitória da Conquista, Região Geográfica Imediata de Vitória da Conquista, Região Geográfica Intermediária de Vitória da Conquista, Bahia, Região Nordeste, Brasil",-14.8567487,-40.8414804
"Mascota, Jalisco, México",20.5533013,-104.76338164381983
"Trujillo, Centro, Valle del Cauca, RAP Pacífico, Colombia",4.2123039,-76.3188928
"Springfield, Greene County, Missouri, United States",37.1968298,-93.2946576
"Honolulu County, Hawaii, United States, Oʻahu",21.48343645,-158.03648372697478
"Town of Islip, Suffolk County, New York, United States",40.7300685,-73.2107266
"Kilimanjaro Street, Membley, Gitothua ward, Ruiru, Kiambu, Central Kenya, Kenya",-1.1674673,36.9355243
"Edmonton, Division No. 11, Alberta, Canada",53.5462055,-113.491241
"Leon, León, Guanajuato, 37547, México",21.0792557,-101.5897695
"Oaxaca, México",17.0,-96.5
"Chicago, Cook County, Illinois, United States",41.8755616,-87.6244212
"Pulaski County, Missouri, 65473, United States, Fort Leonard Wood",37.701139999999995,-92.16933029454009
"Simara, Jitpur Simara, बारा, मधेश प्रदेश, 44417, नेपाल",27.1604122,84.9765794
"Burbank, Los Angeles County, California, United States",34.1812089,-118.307201
"شارع الملك إدريس, اجدابيا, الحي الصناعي, إجدابيا, الواحات, ليبيا",30.7546405,20.2264077
"Institut für Orientalistik, 2-4, Tür 4.1, Spitalgasse, Alservorstadt, KG Alsergrund, Alsergrund, Wien, 1090, Österreich",48.2171331,16.3515022
"Longmont, Boulder County, Colorado, 80501, United States",40.1672117,-105.101928
"Travelodge Las Vegas Airport North/Near the Strip, Koval Lane, Paradise, Clark County, Nevada, 89158, United States",36.098267750000005,-115.16411744999999
"硫黄島飛行場, 小笠原村, 小笠原支庁, 東京都, 日本",24.7851883,141.3241156880049
"Belém, Região Geográfica Imediata de Belém, Região Geográfica Intermediária de Belém, Pará, Região Norte, Brasil",-1.45056,-48.4682453
"Hollywood, Charleston County, South Carolina, United States",32.7343442,-80.2417651
"São Paulo, Região Imediata de São Paulo, Região Metropolitana de São Paulo, Região Geográfica Intermediária de São Paulo, São Paulo, Região Sudeste, Brasil",-23.5506507,-46.6333824
"Jacksonville, Duval County, Florida, United States",30.3321838,-81.655651
"Tasmania, Australia, Frederick Henry Bay",-42.91702,147.60205
"Oreway, Labrador, Newfoundland and Labrador, Canada",52.5684809,-65.8779818
"Lyon, Métropole de Lyon, Rhône, Auvergne-Rhône-Alpes, France métropolitaine, France",45.7578137,4.8320114
"ᓄᓇᕗᑦ Nunavut, Canada, Frobisher Bay",62.83980995,-66.74377376795226
"ناحية ابو کهف, منطقة منبج, محافظة حلب, سوريا, peak near Umm Miyāl",36.3110625,37.8182191
"Jalkot, خیبر پختونخوا, پاکستان",35.0729732,72.8693976
"Tezpur, Sonitpur District, Assam, India",26.61695705,92.76500717365028
"Largs, Ludlow Lane, Fulbourn, South Cambridgeshire, Cambridgeshire, Cambridgeshire and Peterborough, England, CB21 5BL, United Kingdom",52.1814012,0.2214248
"Indapur, Pune, Maharashtra, India",18.1125305,74.92386542316771
"นครราชสีมา, หัวทะเล, จังหวัดนครราชสีมา, 30000, ประเทศไทย",14.9748271,102.0978493
"Pittsburgh, Allegheny County, Pennsylvania, United States",40.4416941,-79.9900861
"Seattle, King County, Washington, United States",47.6038321,-122.330062
"Kenai Peninsula, Alaska, United States, Skilak Lake",60.428669400000004,-150.37468456450287
"Parintins, Região Geográfica Imediata de Parintins, Região Geográfica Intermediária de Parintins, Amazonas, Região Norte, Brasil",-2.6344567,-56.7319324
"Greater London, England, United Kingdom, London",51.4893335,-0.14405508452768728
"काठमाडौं, काठमाडौँ महानगरपालिका, काठमाडौं, बाग्मती प्रदेश, 46000, नेपाल",27.708317,85.3205817
"Ottawa, Eastern Ontario, Ontario, Canada, Orléans",45.40683715,-75.52745676171389
"Ciudad de Guatemala, Departamento de Guatemala, Guatemala",14.6424667,-90.5131361
"WRAY-TV over-the-air TV signal transmitter., Bryant Road, Nash County, North Carolina, United States",35.8312861,-78.1453063
"Asbury Park, Monmouth County, New Jersey, 07711, United States",40.2203907,-74.0120817
"Kano, Nigeria",11.8948389,8.5364136
"Coconino County, Arizona, United States, Grand Canyon",36.097743,-112.0967621
"Éire / Ireland, Shannon",53.1349614,-8.1611027
"Río Cuarto, Municipio de Río Cuarto, Pedanía Río Cuarto, Departamento Río Cuarto, Córdoba, X5800, Argentina",-33.1237585,-64.3489782
"Thazi, သာစည်, မိတ္ထီလာခရိုင်, မန္တလေးတိုင်း, မြန်မာ",20.8545062,96.04948153374664
"Cold Bay, Aleutians East, Alaska, 99571, United States",55.199447500000005,-162.74047820061134
"عمان, ناحية عمان, لواء قصبة عمان, عمان, 11110, الأردن",31.9515694,35.9239625
"Bartlesville, Washington County, Oklahoma, United States",36.7421089,-95.9528877
"Seklowagh Site, Gambell, Unorganized Borough, Alaska, United States",63.7757752,-171.734462796469
"Off Mount Pleasant Street, Little Moor End, Oswaldtwistle, Hyndburn, Lancashire, England, BB5 3EN, United Kingdom",53.7444582,-2.3935759
"Agartala, Mohanpur, West Tripura District, Tripura, 799001, India",23.8312377,91.2823821
"Blackbushe, Hockerill, Bishop's Stortford, East Hertfordshire, Hertfordshire, England, CM23 5EJ, United Kingdom",51.8771495,0.1779749
"Paris, Île-de-France, France métropolitaine, France",48.8534951,2.3483915
"Caracas, Parroquia Catedral, Municipio Libertador, Distrito Capital, Venezuela",10.5060934,-66.9146008
"Caquetá, RAP Amazonía, Colombia",1.1153385,-74.1056838
"Dannemois, Évry, Essonne, Île-de-France, France métropolitaine, 91490, France",48.4538873,2.4778402
"Grub, Grafling, Landkreis Deggendorf, Bayern, 94239, Deutschland",48.9468543,12.9852639
"الظهران, مجمع الظهران السكني, محافظة الدمام, المنطقة الشرقية, 34453, السعودية",26.2966528,50.1202146
"Owasso, Tulsa County, Oklahoma, 74055, United States",36.2659698,-95.8548557
"Rivas, Nicaragua, Isla de Ometepe",11.498386400000001,-85.62553996271319
"Paris, Île-de-France, France métropolitaine, France",48.8534951,2.3483915
"City of New York, New York, United States",40.7127281,-74.0060152
"Blyn, Clallam County, Washington, United States",48.0216921,-123.0057095
"Drayton, Cherwell, Oxfordshire, England, United Kingdom",52.0727328,-1.375292
"Manchester, Greater Manchester, England, United Kingdom",53.4794892,-2.2451148
"Bagé, Região Geográfica Imediata de Bagé, Região Geográfica Intermediária de Pelotas, Rio Grande do Sul, Região Sul, Brasil",-31.3314264,-54.1062808
"Alger ⴷⵣⴰⵢⴻⵔ الجزائر, Alger Centre ⴷⵣⴰⵢⴻⵔ ⵜⴰⵍⴻⵎⵎⴰⵙⵜ الجزائر الوسطى, Daïra Sidi M'Hamed, Alger, 16007, Algérie ⵍⵣⵣⴰⵢⴻⵔ الجزائر",36.7753606,3.0601882
